id,name,time,x,y,z,dx,dy,dz,ddx,ddy,ddz,speed,yaw,pitch,roll,yaw_rate,pitch_rate,roll_rate,axial_accel,lateral_accel,vertical_accel,LAT,LON,ALT
2,Target,0.0,6384271.506206457,0.0,221453.54027814194,10.469849010750291,3.6739403974420595e-14,-299.8172481057287,0.0,0.0,0.0,300.0,3.141592653589793,0.0,0.0,0.0,0.0,0.0,0.0,0.0,0.0,1.9999999999999993,0.0,10000.000000000337
2,Target,0.1,6384272.553124024,3.673940683607077e-15,221423.5585509801,10.468502423465686,3.673940969748833e-14,-299.81729512656517,0.0,0.0,0.0,300.0,3.141592653589793,0.0,0.0,0.0,0.0,0.0,0.0,0.0,0.0,1.999729120032471,3.297185287759828e-20,10000.000003540423
2,Target,0.2,6384273.599899844,7.347881969560716e-15,221393.5768188693,10.467084962933416,3.6739415720178574e-14,-299.81734461564884,0.0,0.0,0.0,300.0,3.141592653589793,0.0,0.0,0.0,0.0,0.0,0.0,0.0,0.0,1.9994582400640497,6.594370034873012e-20,10000.0000070823
2,Target,0.3,6384274.646533931,1.1021823857697689e-14,221363.59508181005,10.465667502162486,3.673942174123642e-14,-299.81739409803123,0.0,0.0,0.0,300.0,3.141592653589793,0.0,0.0,0.0,0.0,0.0,0.0,0.0,0.0,1.9991873600947296,9.891554241412928e-20,10000.000010635298
2,Target,0.4,6384275.693026271,1.4695766347854743e-14,221333.61333980257,10.46425004115294,3.6739427760661904e-14,-299.8174435737126,0.0,0.0,0.0,300.00000000000017,3.141592653589793,0.0,0.0,0.0,0.0,0.0,0.0,0.0,0.0,1.9989164801245123,1.318873790745295e-19,10000.000014187306
2,Target,0.5,6384276.73937686,1.8369709439868642e-14,221303.631592848,10.462832579904823,3.673943377845497e-14,-299.81749304269255,0.0,0.0,0.0,300.00000000000017,3.141592653589793,0.0,0.0,0.0,0.0,0.0,0.0,0.0,0.0,1.9986456001534023,1.6485921033066483e-19,10000.00001773459
2,Target,0.6,6384277.785585701,2.204365313357615e-14,221273.6498409471,10.461415118418177,3.673943979461565e-14,-299.81754250497124,0.0,0.0,0.0,300.00000000000017,3.141592653589793,0.0,0.0,0.0,0.0,0.0,0.0,0.0,0.0,1.9983747201814,1.9783103618326899e-19,10000.000021280877
2,Target,0.7000000000000001,6384278.831652797,2.5717597428814022e-14,221243.6680841,10.459997656693005,3.673944580914393e-14,-299.8175919605487,0.0,0.0,0.0,300.00000000000017,3.141592653589793,0.0,0.0,0.0,0.0,0.0,0.0,0.0,0.0,1.9981038402084996,2.3080285663307577e-19,10000.000024827103
2,Target,0.8,6384279.877578152,2.939154232541905e-14,221213.6863223082,10.458580194729365,3.673945182203982e-14,-299.81764140942494,0.0,0.0,0.0,300.00000000000017,3.141592653589793,0.0,0.0,0.0,0.0,0.0,0.0,0.0,0.0,1.997832960234707,2.637746716808191e-19,10000.000028379787
2,Target,0.9,6384280.923361752,3.306548782322794e-14,221183.70455557175,10.457162732527287,3.673945783330331e-14,-299.8176908515999,0.0,0.0,0.0,300.0000000000001,3.141592653589793,0.0,0.0,0.0,0.0,0.0,0.0,0.0,0.0,1.9975620802600225,2.9674648132723275e-19,10000.00003192309
2,Target,1.0,6384281.969003607,3.673943392207748e-14,221153.7227838909,10.45574527008677,3.6739463842934403e-14,-299.8177402870735,0.0,0.0,0.0,300.0,3.141592653589793,0.0,0.0,0.0,0.0,0.0,0.0,0.0,0.0,1.9972912002844379,3.2971828557305054e-19,10000.00003546633
2,Target,1.1,6384283.014503723,4.041338062180444e-14,221123.74100726692,10.454327807407857,3.673946985093312e-14,-299.817789715846,0.0,0.0,0.0,300.0,3.141592653589793,0.0,0.0,0.0,0.0,0.0,0.0,0.0,0.0,1.997020320307957,3.62690084419006e-19,10000.000039018825
2,Target,1.2,6384284.059862094,4.408732792224557e-14,221093.75922570057,10.452910344490608,3.673947585729946e-14,-299.8178391379174,0.0,0.0,0.0,300.00000000000017,3.141592653589793,0.0,0.0,0.0,0.0,0.0,0.0,0.0,0.0,1.9967494403305834,3.95661877865833e-19,10000.000042571259
2,Target,1.3,6384285.105078712,4.776127582323761e-14,221063.77743919226,10.451492881335046,3.673948186203341e-14,-299.81788855328756,0.0,0.0,0.0,300.0000000000003,3.141592653589793,0.0,0.0,0.0,0.0,0.0,0.0,0.0,0.0,1.9964785603523172,4.2863366591426573e-19,10000.000046117108
2,Target,1.4000000000000001,6384286.150153587,5.1435224324617356e-14,221033.79564774316,10.450075417941212,3.673948786513497e-14,-299.81793796195643,0.0,0.0,0.0,300.00000000000034,3.141592653589793,0.0,0.0,0.0,0.0,0.0,0.0,0.0,0.0,1.9962076803731592,4.616054485650378e-19,10000.00004966662
2,Target,1.5,6384287.195086713,5.5109173426221555e-14,221003.8138513536,10.448657954309128,3.673949386660412e-14,-299.8179873639239,0.0,0.0,0.0,300.00000000000034,3.141592653589793,0.0,0.0,0.0,0.0,0.0,0.0,0.0,0.0,1.9959368003931084,4.945772258188832e-19,10000.000053214208
2,Target,1.6,6384288.239878095,5.878312312788701e-14,220973.83205002404,10.447240490438816,3.6739499866440887e-14,-299.81803675919025,0.0,0.0,0.0,300.00000000000034,3.141592653589793,0.0,0.0,0.0,0.0,0.0,0.0,0.0,0.0,1.9956659204121625,5.275489976765359e-19,10000.000056762663
2,Target,1.7,6384289.2845277265,6.24570734294504e-14,220943.85024375527,10.445823026330315,3.6739505864645255e-14,-299.81808614775525,0.0,0.0,0.0,300.00000000000034,3.141592653589793,0.0,0.0,0.0,0.0,0.0,0.0,0.0,0.0,1.9953950404303236,5.605207641387293e-19,10000.00006030826
2,Target,1.8,6384290.329035608,6.61310243307485e-14,220913.86843254755,10.444405561983649,3.673951186121724e-14,-299.81813552961904,0.0,0.0,0.0,300.00000000000034,3.141592653589793,0.0,0.0,0.0,0.0,0.0,0.0,0.0,0.0,1.9951241604475887,5.934925252061975e-19,10000.000063850066
2,Target,1.9000000000000001,6384291.373401751,6.980497583161821e-14,220883.8866164023,10.442988097398862,3.673951785615685e-14,-299.81818490478173,0.0,0.0,0.0,300.0000000000005,3.141592653589793,0.0,0.0,0.0,0.0,0.0,0.0,0.0,0.0,1.9948532804639603,6.264642808796745e-19,10000.000067400197
2,Target,2.0,6384292.417626141,7.34789279318961e-14,220853.90479532006,10.441570632576004,3.673952384946407e-14,-299.8182342732432,0.0,0.0,0.0,300.0000000000007,3.141592653589793,0.0,0.0,0.0,0.0,0.0,0.0,0.0,0.0,1.9945824004794428,6.594360311598937e-19,10000.00007094095
2,Target,2.1,6384293.461708786,7.715288063141899e-14,220823.92296930117,10.44015316751507,3.673952984113888e-14,-299.8182836350032,0.0,0.0,0.0,300.0000000000007,3.141592653589793,0.0,0.0,0.0,0.0,0.0,0.0,0.0,0.0,1.9943115204940303,6.924077760475887e-19,10000.000074485366
2,Target,2.2,6384294.505649697,8.082683393002378e-14,220793.94113834674,10.438735702216103,3.6739535831181303e-14,-299.818332990062,0.0,0.0,0.0,300.0000000000007,3.141592653589793,0.0,0.0,0.0,0.0,0.0,0.0,0.0,0.0,1.994040640507723,7.253795155434934e-19,10000.000078043695
2,Target,2.3000000000000003,6384295.549448851,8.450078782754696e-14,220763.95930245682,10.437318236679145,3.673954181959135e-14,-299.81838233841955,0.0,0.0,0.0,300.00000000000074,3.141592653589793,0.0,0.0,0.0,0.0,0.0,0.0,0.0,0.0,1.9937697605205233,7.583512496483415e-19,10000.00008158985
2,Target,2.4,6384296.593106258,8.817474232382543e-14,220733.97746163246,10.435900770904222,3.673954780636898e-14,-299.8184316800757,0.0,0.0,0.0,300.0000000000007,3.141592653589793,0.0,0.0,0.0,0.0,0.0,0.0,0.0,0.0,1.9934988805324316,7.913229783628671e-19,10000.000085135944
2,Target,2.5,6384297.636621926,9.18486974186961e-14,220703.99561587448,10.434483304891371,3.673955379151423e-14,-299.8184810150308,0.0,0.0,0.0,300.00000000000074,3.141592653589793,0.0,0.0,0.0,0.0,0.0,0.0,0.0,0.0,1.9932280005434468,8.242947016878044e-19,10000.000088689425
2,Target,2.6,6384298.679995839,9.552265311199547e-14,220674.01376518316,10.433065838640625,3.673955977502709e-14,-299.8185303432844,0.0,0.0,0.0,300.0000000000006,3.141592653589793,0.0,0.0,0.0,0.0,0.0,0.0,0.0,0.0,1.99295712055357,8.572664196238868e-19,10000.00009223446
2,Target,2.7,6384299.723228003,9.919660940356041e-14,220644.03190955953,10.431648372152026,3.673956575690757e-14,-299.81857966483693,0.0,0.0,0.0,300.0000000000007,3.141592653589793,0.0,0.0,0.0,0.0,0.0,0.0,0.0,0.0,1.9926862405628034,8.902381321718484e-19,10000.000095777572
2,Target,2.8000000000000003,6384300.76631842,1.0287056629322777e-13,220614.05004900385,10.43023090542558,3.673957173715564e-14,-299.81862897968807,0.0,0.0,0.0,300.00000000000057,3.141592653589793,0.0,0.0,0.0,0.0,0.0,0.0,0.0,0.0,1.9924153605711423,9.232098393324236e-19,10000.000099319686
2,Target,2.9,6384301.809267092,1.0654452378083418e-13,220584.06818351714,10.428813438461347,3.6739577715771374e-14,-299.8186782878383,0.0,0.0,0.0,300.00000000000085,3.141592653589793,0.0,0.0,0.0,0.0,0.0,0.0,0.0,0.0,1.9921444805785895,9.561815411063446e-19,10000.000102864535
2,Target,3.0,6384302.852074021,1.102184818662166e-13,220554.0863131002,10.427395971259346,3.6739583692754697e-14,-299.8187275892871,0.0,0.0,0.0,300.00000000000097,3.141592653589793,0.0,0.0,0.0,0.0,0.0,0.0,0.0,0.0,1.9918736005851458,9.891532374943468e-19,10000.000106412115
2,Target,3.1,6384303.894739204,1.1389244054921167e-13,220524.10443775333,10.425978503819596,3.6739589668105613e-14,-299.8187768840345,0.0,0.0,0.0,300.0000000000009,3.141592653589793,0.0,0.0,0.0,0.0,0.0,0.0,0.0,0.0,1.9916027205908087,1.022124928497163e-18,10000.000109961502
2,Target,3.2,6384304.937262641,1.1756639982965617e-13,220494.12255747744,10.424561036142144,3.673959564182413e-14,-299.81882617208055,0.0,0.0,0.0,300.00000000000085,3.141592653589793,0.0,0.0,0.0,0.0,0.0,0.0,0.0,0.0,1.9913318405955802,1.0550966141155276e-18,10000.000113510823
2,Target,3.3000000000000003,6384305.979644327,1.2124035970738663e-13,220464.1406722732,10.423143568227037,3.6739601613910274e-14,-299.81887545342545,0.0,0.0,0.0,300.00000000000085,3.141592653589793,0.0,0.0,0.0,0.0,0.0,0.0,0.0,0.0,1.9910609605994622,1.0880682943501731e-18,10000.000117057289
2,Target,3.4,6384307.021884264,1.2491432018224002e-13,220434.15878214102,10.421726100074286,3.6739607584364024e-14,-299.8189247280691,0.0,0.0,0.0,300.00000000000085,3.141592653589793,0.0,0.0,0.0,0.0,0.0,0.0,0.0,0.0,1.9907900806024525,1.1210399692018347e-18,10000.000120599962
2,Target,3.5,6384308.0639824625,1.2858828125405328e-13,220404.17688708194,10.420308631683922,3.6739613553185394e-14,-299.8189739960114,0.0,0.0,0.0,300.00000000000085,3.141592653589793,0.0,0.0,0.0,0.0,0.0,0.0,0.0,0.0,1.9905192006045513,1.1540116386712463e-18,10000.00012415003
2,Target,3.6,6384309.105938911,1.3226224292266287e-13,220374.19498709618,10.418891163055983,3.673961952037438e-14,-299.8190232572526,0.0,0.0,0.0,300.00000000000097,3.141592653589793,0.0,0.0,0.0,0.0,0.0,0.0,0.0,0.0,1.9902483206057566,1.1869833027591406e-18,10000.000127699108
2,Target,3.7,6384310.147753616,1.3593620518790565e-13,220344.2130821846,10.417473694190493,3.6739625485930967e-14,-299.8190725117924,0.0,0.0,0.0,300.00000000000097,3.141592653589793,0.0,0.0,0.0,0.0,0.0,0.0,0.0,0.0,1.9899774406060702,1.2199549614662512e-18,10000.000131249983
2,Target,3.8000000000000003,6384311.189426573,1.3961016804961844e-13,220314.23117234785,10.416056225087491,3.673963144985517e-14,-299.81912175963095,0.0,0.0,0.0,300.00000000000097,3.141592653589793,0.0,0.0,0.0,0.0,0.0,0.0,0.0,0.0,1.9897065606054916,1.2529266147933134e-18,10000.000134800799
2,Target,3.9,6384312.230957783,1.4328413150763787e-13,220284.2492575865,10.414638755747001,3.673963741214698e-14,-299.81917100076816,0.0,0.0,0.0,300.00000000000097,3.141592653589793,0.0,0.0,0.0,0.0,0.0,0.0,0.0,0.0,1.9894356806040212,1.2858982627410596e-18,10000.00013835155
2,Target,4.0,6384313.272347241,1.469580955618007e-13,220254.26733790146,10.413221286169076,3.67396433728064e-14,-299.81922023520406,0.0,0.0,0.0,300.00000000000085,3.141592653589793,0.0,0.0,0.0,0.0,0.0,0.0,0.0,0.0,1.9891648006016625,1.3188699053102245e-18,10000.000141896651
2,Target,4.1,6384314.313594953,1.5063206021194374e-13,220224.28541329358,10.411803816353746,3.673964933183342e-14,-299.8192694629386,0.0,0.0,0.0,300.00000000000074,3.141592653589793,0.0,0.0,0.0,0.0,0.0,0.0,0.0,0.0,1.9888939205984144,1.3518415425015412e-18,10000.000145443553
2,Target,4.2,6384315.354700918,1.543060254579039e-13,220194.3034837631,10.410386346301031,3.673965528922806e-14,-299.819318683972,0.0,0.0,0.0,300.00000000000074,3.141592653589793,0.0,0.0,0.0,0.0,0.0,0.0,0.0,0.0,1.9886230405942744,1.3848131743157447e-18,10000.000148989464
2,Target,4.3,6384316.3956651315,1.579799912995176e-13,220164.32154931102,10.40896887601099,3.6739661244990335e-14,-299.8193678983042,0.0,0.0,0.0,300.0000000000008,3.141592653589793,0.0,0.0,0.0,0.0,0.0,0.0,0.0,0.0,1.9883521605892471,1.4177848007535677e-18,10000.000152531582
2,Target,4.4,6384317.436487603,1.6165395773662202e-13,220134.3396099378,10.40755140548362,3.6739667199120224e-14,-299.81941710593514,0.0,0.0,0.0,300.00000000000085,3.141592653589793,0.0,0.0,0.0,0.0,0.0,0.0,0.0,0.0,1.9880812805833268,1.4507564218157448e-18,10000.000156077367
2,Target,4.5,6384318.477168327,1.6532792476905366e-13,220104.35766564397,10.406133934718955,3.673967315161772e-14,-299.8194663068648,0.0,0.0,0.0,300.0000000000009,3.141592653589793,0.0,0.0,0.0,0.0,0.0,0.0,0.0,0.0,1.9878104005765151,1.4837280375030089e-18,10000.000159624025
2,Target,4.6000000000000005,6384319.517707305,1.6900189239664944e-13,220074.37571643086,10.40471646371706,3.673967910248283e-14,-299.8195155010932,0.0,0.0,0.0,300.00000000000097,3.141592653589793,0.0,0.0,0.0,0.0,0.0,0.0,0.0,0.0,1.9875395205688173,1.5166996478160947e-18,10000.000163172484
2,Target,4.7,6384320.558104535,1.7267586061924593e-13,220044.39376229828,10.403298992477927,3.673968505171554e-14,-299.8195646886201,0.0,0.0,0.0,300.0000000000009,3.141592653589793,0.0,0.0,0.0,0.0,0.0,0.0,0.0,0.0,1.987268640560226,1.5496712527557354e-18,10000.000166719017
2,Target,4.8,6384321.598360013,1.7634982943667985e-13,220014.4118032472,10.401881521001608,3.673969099931586e-14,-299.8196138694458,0.0,0.0,0.0,300.00000000000085,3.141592653589793,0.0,0.0,0.0,0.0,0.0,0.0,0.0,0.0,1.9869977605507454,1.5826428523226645e-18,10000.00017026083
2,Target,4.9,6384322.638473756,1.8002379884878857e-13,219984.42983927843,10.400464049288118,3.673969694528381e-14,-299.81966304357024,0.0,0.0,0.0,300.0000000000009,3.141592653589793,0.0,0.0,0.0,0.0,0.0,0.0,0.0,0.0,1.986726880540372,1.6156144465176176e-18,10000.000173814697
2,Target,5.0,6384323.678445746,1.836977688554082e-13,219954.4478703928,10.399046577337527,3.673970288961937e-14,-299.8197122109935,0.0,0.0,0.0,300.00000000000097,3.141592653589793,0.0,0.0,0.0,0.0,0.0,0.0,0.0,0.0,1.9864560005291123,1.648586035341327e-18,10000.000177362908
2,Target,5.1000000000000005,6384324.718275988,1.8737173945637563e-13,219924.46589659082,10.39762910514985,3.673970883232254e-14,-299.81976137171534,0.0,0.0,0.0,300.00000000000097,3.141592653589793,0.0,0.0,0.0,0.0,0.0,0.0,0.0,0.0,1.986185120516964,1.6815576187945265e-18,10000.000180910127
2,Target,5.2,6384325.757964483,1.910457106515277e-13,219894.48391787295,10.396211632725105,3.673971477339332e-14,-299.81981052573593,0.0,0.0,0.0,300.00000000000097,3.141592653589793,0.0,0.0,0.0,0.0,0.0,0.0,0.0,0.0,1.985914240503925,1.7145291968779498e-18,10000.000184459152
2,Target,5.3,6384326.797511234,1.9471968244070122e-13,219864.5019342403,10.39479416006334,3.673972071283171e-14,-299.8198596730551,0.0,0.0,0.0,300.00000000000085,3.141592653589793,0.0,0.0,0.0,0.0,0.0,0.0,0.0,0.0,1.9856433604899983,1.7475007695923314e-18,10000.000188009048
2,Target,5.4,6384327.8369162325,1.983936548237328e-13,219834.51994569303,10.393376687164583,3.6739726650637715e-14,-299.81990881367307,0.0,0.0,0.0,300.00000000000085,3.141592653589793,0.0,0.0,0.0,0.0,0.0,0.0,0.0,0.0,1.9853724804751811,1.780472336938405e-18,10000.00019155515
2,Target,5.5,6384328.876179486,2.020676278004593e-13,219804.5379522321,10.391959214028867,3.673973258681136e-14,-299.81995794758984,0.0,0.0,0.0,300.00000000000097,3.141592653589793,0.0,0.0,0.0,0.0,0.0,0.0,0.0,0.0,1.9851016004594755,1.8134438989169036e-18,10000.000195103055
2,Target,5.6000000000000005,6384329.915300989,2.057416013707174e-13,219774.55595385775,10.390541740656204,3.673973852135258e-14,-299.8200070748051,0.0,0.0,0.0,300.00000000000085,3.141592653589793,0.0,0.0,0.0,0.0,0.0,0.0,0.0,0.0,1.9848307204428788,1.846415455528562e-18,10000.000198647178
2,Target,5.7,6384330.954280747,2.094155755343441e-13,219744.57395057147,10.389124267046665,3.6739744454261436e-14,-299.8200561953192,0.0,0.0,0.0,300.00000000000085,3.141592653589793,0.0,0.0,0.0,0.0,0.0,0.0,0.0,0.0,1.984559840425396,1.8793870067741142e-18,10000.000202194029
2,Target,5.8,6384331.993118754,2.1308955029117568e-13,219714.59194237326,10.387706793200252,3.673975038553789e-14,-299.8201053091319,0.0,0.0,0.0,300.00000000000074,3.141592653589793,0.0,0.0,0.0,0.0,0.0,0.0,0.0,0.0,1.9842889604070242,1.9123585526542916e-18,10000.000205737097
2,Target,5.9,6384333.031815014,2.1676352564104932e-13,219684.6099292641,10.386289319117024,3.6739756315181994e-14,-299.8201544162436,0.0,0.0,0.0,300.00000000000097,3.141592653589793,0.0,0.0,0.0,0.0,0.0,0.0,0.0,0.0,1.9840180803877638,1.9453300931698308e-18,10000.000209281032
2,Target,6.0,6384334.070369532,2.2043750158380173e-13,219654.62791124458,10.384871844796981,3.67397622431937e-14,-299.8202035166538,0.0,0.0,0.0,300.00000000000097,3.141592653589793,0.0,0.0,0.0,0.0,0.0,0.0,0.0,0.0,1.9837472003676138,1.978301628321463e-18,10000.000212831428
2,Target,6.1000000000000005,6384335.108782302,2.2411147811926965e-13,219624.64588831554,10.38345437024019,3.6739768169573036e-14,-299.8202526103629,0.0,0.0,0.0,300.00000000000114,3.141592653589793,0.0,0.0,0.0,0.0,0.0,0.0,0.0,0.0,1.9834763203465777,2.0112731581099244e-18,10000.000216378972
2,Target,6.2,6384336.147053315,2.277854552472895e-13,219594.66386047727,10.382036895446653,3.6739774094319945e-14,-299.8203016973703,0.0,0.0,0.0,300.00000000000097,3.141592653589793,0.0,0.0,0.0,0.0,0.0,0.0,0.0,0.0,1.9832054403246542,2.044244682535948e-18,10000.000219919932
2,Target,6.3,6384337.185182583,2.3145943296769823e-13,219564.6818277304,10.380619420416405,3.673978001743448e-14,-299.8203507776766,0.0,0.0,0.0,300.00000000000097,3.141592653589793,0.0,0.0,0.0,0.0,0.0,0.0,0.0,0.0,1.9829345603018393,2.0772162016002655e-18,10000.000223460827
2,Target,6.4,6384338.223170115,2.3513341128033327e-13,219534.6997900763,10.379201945149488,3.673978593891664e-14,-299.82039985128154,0.0,0.0,0.0,300.0000000000009,3.141592653589793,0.0,0.0,0.0,0.0,0.0,0.0,0.0,0.0,1.9826636802781374,2.1101877153036144e-18,10000.00022701378
2,Target,6.5,6384339.261015893,2.388073901850304e-13,219504.71774751518,10.377784469645945,3.6739791858766417e-14,-299.8204489181852,0.0,0.0,0.0,300.0000000000009,3.141592653589793,0.0,0.0,0.0,0.0,0.0,0.0,0.0,0.0,1.9823928002535491,2.143159223646724e-18,10000.00023056108
2,Target,6.6000000000000005,6384340.298719932,2.4248136968162734e-13,219474.73570004775,10.376366993905787,3.67397977769838e-14,-299.82049797838755,0.0,0.0,0.0,300.00000000000085,3.141592653589793,0.0,0.0,0.0,0.0,0.0,0.0,0.0,0.0,1.9821219202280713,2.176130726630333e-18,10000.00023411671
2,Target,6.7,6384341.336282212,2.4615534976995985e-13,219444.75364767437,10.374949517929062,3.673980369356881e-14,-299.8205470318887,0.0,0.0,0.0,300.0000000000009,3.141592653589793,0.0,0.0,0.0,0.0,0.0,0.0,0.0,0.0,1.981851040201707,2.209102224255173e-18,10000.000237659226
2,Target,6.8,6384342.3737027515,2.498293304498654e-13,219414.77159039627,10.373532041715794,3.6739809608521426e-14,-299.82059607868837,0.0,0.0,0.0,300.00000000000085,3.141592653589793,0.0,0.0,0.0,0.0,0.0,0.0,0.0,0.0,1.9815801601744556,2.2420737165219776e-18,10000.00024121007
2,Target,6.9,6384343.410981542,2.5350331172118055e-13,219384.78952821385,10.372114565266024,3.673981552184166e-14,-299.82064511878684,0.0,0.0,0.0,300.00000000000085,3.141592653589793,0.0,0.0,0.0,0.0,0.0,0.0,0.0,0.0,1.9813092801463175,2.275045203431481e-18,10000.000244760853
2,Target,7.0,6384344.448118585,2.571772935837418e-13,219354.80746112773,10.370697088579774,3.6739821433529514e-14,-299.820694152184,0.0,0.0,0.0,300.0000000000009,3.141592653589793,0.0,0.0,0.0,0.0,0.0,0.0,0.0,0.0,1.981038400117292,2.3080166849844152e-18,10000.000248310645
2,Target,7.1000000000000005,6384345.485113876,2.60851276037386e-13,219324.82538913825,10.369279611657076,3.6739827343585e-14,-299.82074317887987,0.0,0.0,0.0,300.0000000000009,3.141592653589793,0.0,0.0,0.0,0.0,0.0,0.0,0.0,0.0,1.9807675200873773,2.340988161181515e-18,10000.000251855718
2,Target,7.2,6384346.521967421,2.645252590819502e-13,219294.84331224684,10.367862134497974,3.6739833252008074e-14,-299.82079219887424,0.0,0.0,0.0,300.0000000000008,3.141592653589793,0.0,0.0,0.0,0.0,0.0,0.0,0.0,0.0,1.9804966400565782,2.3739596320235165e-18,10000.000255403525
2,Target,7.3,6384347.55867921,2.681992427172709e-13,219264.86123045342,10.366444657102498,3.6739839158798786e-14,-299.8208412121676,0.0,0.0,0.0,300.00000000000097,3.141592653589793,0.0,0.0,0.0,0.0,0.0,0.0,0.0,0.0,1.9802257600248918,2.4069310975111533e-18,10000.000258941953
2,Target,7.4,6384348.5952492505,2.71873226943185e-13,219234.8791437594,10.365027179470687,3.673984506395709e-14,-299.82089021875936,0.0,0.0,0.0,300.00000000000085,3.141592653589793,0.0,0.0,0.0,0.0,0.0,0.0,0.0,0.0,1.9799548799923228,2.4399025576451586e-18,10000.000262480322
2,Target,7.5,6384349.631677541,2.755472117595291e-13,219204.8970521646,10.363609701602545,3.6739850967483026e-14,-299.82093921864987,0.0,0.0,0.0,300.00000000000085,3.141592653589793,0.0,0.0,0.0,0.0,0.0,0.0,0.0,0.0,1.979683999958864,2.4728740124262646e-18,10000.000266015835
2,Target,7.6000000000000005,6384350.66796409,2.7922119716614034e-13,219174.91495567042,10.362192223498125,3.673985686937658e-14,-299.8209882118391,0.0,0.0,0.0,300.00000000000085,3.141592653589793,0.0,0.0,0.0,0.0,0.0,0.0,0.0,0.0,1.9794131199245188,2.5058454618552055e-18,10000.000269557813
2,Target,7.7,6384351.704108897,2.828951831628555e-13,219144.93285427763,10.360774745157457,3.6739862769637724e-14,-299.8210371983269,0.0,0.0,0.0,300.0000000000007,3.141592653589793,0.0,0.0,0.0,0.0,0.0,0.0,0.0,0.0,1.9791422398892884,2.5388169059327156e-18,10000.000273106249
2,Target,7.8,6384352.7401119545,2.8656916974951093e-13,219114.95074798612,10.359357266580565,3.6739868668266535e-14,-299.82108617811366,0.0,0.0,0.0,300.00000000000085,3.141592653589793,0.0,0.0,0.0,0.0,0.0,0.0,0.0,0.0,1.9788713598531684,2.571788344659527e-18,10000.000276651834
2,Target,7.9,6384353.775973263,2.902431569259436e-13,219084.96863679728,10.357939787767494,3.6739874565262914e-14,-299.8211351511988,0.0,0.0,0.0,300.00000000000074,3.141592653589793,0.0,0.0,0.0,0.0,0.0,0.0,0.0,0.0,1.9786004798161656,2.6047597780363764e-18,10000.000280198286
2,Target,8.0,6384354.811692828,2.939171446919903e-13,219054.98652071127,10.356522308718262,3.6739880460626964e-14,-299.8211841175829,0.0,0.0,0.0,300.00000000000085,3.141592653589793,0.0,0.0,0.0,0.0,0.0,0.0,0.0,0.0,1.978329599778274,2.6377312060639944e-18,10000.000283747477
2,Target,8.1,6384355.847270643,2.975911330474876e-13,219025.0043997293,10.355104829432925,3.6739886354358595e-14,-299.82123307726545,0.0,0.0,0.0,300.0000000000008,3.141592653589793,0.0,0.0,0.0,0.0,0.0,0.0,0.0,0.0,1.9780587197394996,2.6707026287431165e-18,10000.000287295674
2,Target,8.2,6384356.882706715,3.0126512199227254e-13,218995.0222738516,10.353687349911487,3.673989224645785e-14,-299.8212820302468,0.0,0.0,0.0,300.00000000000085,3.141592653589793,0.0,0.0,0.0,0.0,0.0,0.0,0.0,0.0,1.9777878396998372,2.7036740460744763e-18,10000.000290846612
2,Target,8.3,6384357.918001034,3.0493911152618153e-13,218965.04014307907,10.352269870154005,3.673989813692472e-14,-299.8213309765267,0.0,0.0,0.0,300.00000000000085,3.141592653589793,0.0,0.0,0.0,0.0,0.0,0.0,0.0,0.0,1.9775169596592919,2.7366454580588078e-18,10000.00029439469
2,Target,8.4,6384358.953153599,3.0861310164905095e-13,218935.05800741215,10.350852390160508,3.6739904025759226e-14,-299.82137991610546,0.0,0.0,0.0,300.0000000000009,3.141592653589793,0.0,0.0,0.0,0.0,0.0,0.0,0.0,0.0,1.977246079617862,2.7696168646968425e-18,10000.000297936183
2,Target,8.5,6384359.988164423,3.1228709236071847e-13,218905.07586685143,10.349434909930997,3.673990991296133e-14,-299.82142884898275,0.0,0.0,0.0,300.00000000000085,3.141592653589793,0.0,0.0,0.0,0.0,0.0,0.0,0.0,0.0,1.9769751995755425,2.802588265989316e-18,10000.000301486005
2,Target,8.6,6384361.023033497,3.1596108366102037e-13,218875.09372139798,10.348017429465541,3.673991579853106e-14,-299.8214777751587,0.0,0.0,0.0,300.00000000000085,3.141592653589793,0.0,0.0,0.0,0.0,0.0,0.0,0.0,0.0,1.9767043195323408,2.835559661936962e-18,10000.00030503204
2,Target,8.700000000000001,6384362.057760824,3.1963507554979377e-13,218845.1115710523,10.346599948764153,3.67399216824684e-14,-299.82152669463335,0.0,0.0,0.0,300.00000000000085,3.141592653589793,0.0,0.0,0.0,0.0,0.0,0.0,0.0,0.0,1.9764334394882535,2.868531052540516e-18,10000.000308579882
2,Target,8.8,6384363.0923463935,3.2330906802687494e-13,218815.12941581476,10.34518246782688,3.673992756477336e-14,-299.82157560740666,0.0,0.0,0.0,300.00000000000085,3.141592653589793,0.0,0.0,0.0,0.0,0.0,0.0,0.0,0.0,1.9761625594432828,2.901502437800713e-18,10000.000312118342
2,Target,8.9,6384364.126790219,3.26983061092101e-13,218785.14725568664,10.343764986653754,3.673993344544595e-14,-299.8216245134787,0.0,0.0,0.0,300.0000000000009,3.141592653589793,0.0,0.0,0.0,0.0,0.0,0.0,0.0,0.0,1.9758916793974282,2.9344738177182835e-18,10000.00031565954
2,Target,9.0,6384365.161092294,3.3065705474530873e-13,218755.16509066793,10.342347505244788,3.673993932448616e-14,-299.8216734128494,0.0,0.0,0.0,300.00000000000097,3.141592653589793,0.0,0.0,0.0,0.0,0.0,0.0,0.0,0.0,1.9756207993506865,2.9674451922939627e-18,10000.00031919974
2,Target,9.1,6384366.195252625,3.343310489863348e-13,218725.18292075946,10.340930023600006,3.673994520189397e-14,-299.8217223055186,0.0,0.0,0.0,300.00000000000085,3.141592653589793,0.0,0.0,0.0,0.0,0.0,0.0,0.0,0.0,1.9753499193030577,3.0004165615284827e-18,10000.000322744547
2,Target,9.200000000000001,6384367.229271207,3.3800504381501583e-13,218695.2007459624,10.339512541719479,3.673995107766941e-14,-299.82177119148656,0.0,0.0,0.0,300.00000000000085,3.141592653589793,0.0,0.0,0.0,0.0,0.0,0.0,0.0,0.0,1.9750790392545476,3.0333879254225777e-18,10000.00032628743
2,Target,9.3,6384368.263148041,3.4167903923118867e-13,218665.21856627715,10.338095059603218,3.673995695181246e-14,-299.82182007075323,0.0,0.0,0.0,300.00000000000085,3.141592653589793,0.0,0.0,0.0,0.0,0.0,0.0,0.0,0.0,1.9748081592051536,3.0663592839769814e-18,10000.000329831184
2,Target,9.4,6384369.296883136,3.4535303523469054e-13,218635.23638170437,10.336677577251251,3.6739962824323154e-14,-299.82186894331863,0.0,0.0,0.0,300.00000000000097,3.141592653589793,0.0,0.0,0.0,0.0,0.0,0.0,0.0,0.0,1.9745372791548728,3.0993306371924273e-18,10000.000333383263
2,Target,9.5,6384370.330476483,3.490270318253578e-13,218605.25419224464,10.335260094663617,3.6739968695201466e-14,-299.82191780918276,0.0,0.0,0.0,300.00000000000114,3.141592653589793,0.0,0.0,0.0,0.0,0.0,0.0,0.0,0.0,1.9742663991037075,3.1323019850696503e-18,10000.000336936217
2,Target,9.6,6384371.363928074,3.5270102900302666e-13,218575.2719978987,10.333842611840355,3.673997456444738e-14,-299.82196666834534,0.0,0.0,0.0,300.00000000000114,3.141592653589793,0.0,0.0,0.0,0.0,0.0,0.0,0.0,0.0,1.9739955190516607,3.1652733276093827e-18,10000.000340481654
2,Target,9.700000000000001,6384372.397237922,3.563750267675348e-13,218545.28979866722,10.332425128781477,3.673998043206091e-14,-299.8220155208066,0.0,0.0,0.0,300.00000000000114,3.141592653589793,0.0,0.0,0.0,0.0,0.0,0.0,0.0,0.0,1.9737246389987284,3.1982446648123605e-18,10000.000344032624
2,Target,9.8,6384373.430406017,3.600490251187185e-13,218515.30759455072,10.331007645487036,3.673998629804207e-14,-299.82206436656656,0.0,0.0,0.0,300.00000000000114,3.141592653589793,0.0,0.0,0.0,0.0,0.0,0.0,0.0,0.0,1.9734537589449128,3.231215996679318e-18,10000.00034757795
2,Target,9.9,6384374.46343236,3.637230240564146e-13,218485.32538555,10.32959016195706,3.673999216239084e-14,-299.8221132056251,0.0,0.0,0.0,300.00000000000114,3.141592653589793,0.0,0.0,0.0,0.0,0.0,0.0,0.0,0.0,1.973182878890215,3.2641873232109886e-18,10000.000351120414
2,Target,10.0,6384375.496316953,3.6739702358045975e-13,218455.34317166574,10.328172678191578,3.673999802510721e-14,-299.82216203798214,0.0,0.0,0.0,300.00000000000097,3.141592653589793,0.0,0.0,0.0,0.0,0.0,0.0,0.0,0.0,1.9729119988346344,3.2971586444081053e-18,10000.000354660026
2,Target,10.1,6384376.529059803,3.7107102369069117e-13,218425.36095289863,10.326755194190621,3.674000388619125e-14,-299.82221086363825,0.0,0.0,0.0,300.00000000000114,3.141592653589793,0.0,0.0,0.0,0.0,0.0,0.0,0.0,0.0,1.9726411187781692,3.3301299602714014e-18,10000.000358207033
2,Target,10.200000000000001,6384377.561660905,3.747450243869451e-13,218395.37872924926,10.32533770995422,3.6740009745642884e-14,-299.8222596825928,0.0,0.0,0.0,300.0000000000012,3.141592653589793,0.0,0.0,0.0,0.0,0.0,0.0,0.0,0.0,1.9723702387208195,3.3631012708016088e-18,10000.000361753047
2,Target,10.3,6384378.594120256,3.7841902566905836e-13,218365.3965007182,10.323920225482404,3.674001560346213e-14,-299.8223084948459,0.0,0.0,0.0,300.00000000000114,3.141592653589793,0.0,0.0,0.0,0.0,0.0,0.0,0.0,0.0,1.9720993586625868,3.3960725759994635e-18,10000.00036529621
2,Target,10.4,6384379.626437863,3.8209302753686794e-13,218335.41426730627,10.322502740775203,3.674002145964901e-14,-299.8223573003978,0.0,0.0,0.0,300.0000000000012,3.141592653589793,0.0,0.0,0.0,0.0,0.0,0.0,0.0,0.0,1.9718284786034692,3.4290438758656966e-18,10000.000368844901
2,Target,10.5,6384380.658613724,3.857670299902107e-13,218305.4320290143,10.32108525583266,3.67400273142035e-14,-299.8224060992482,0.0,0.0,0.0,300.00000000000114,3.141592653589793,0.0,0.0,0.0,0.0,0.0,0.0,0.0,0.0,1.9715575985434703,3.462015170401045e-18,10000.000372395401
2,Target,10.6,6384381.690647832,3.894410330289232e-13,218275.44978584282,10.31966777065481,3.674003316712561e-14,-299.8224548913973,0.0,0.0,0.0,300.0000000000011,3.141592653589793,0.0,0.0,0.0,0.0,0.0,0.0,0.0,0.0,1.9712867184825893,3.494986459606244e-18,10000.000375941181
2,Target,10.700000000000001,6384382.722540192,3.931150366528424e-13,218245.4675377924,10.318250285241673,3.6740039018415316e-14,-299.8225036768448,0.0,0.0,0.0,300.00000000000085,3.141592653589793,0.0,0.0,0.0,0.0,0.0,0.0,0.0,0.0,1.9710158384208252,3.527957743482026e-18,10000.000379487834
2,Target,10.8,6384383.7542908,3.967890408618043e-13,218215.48528486383,10.316832799593305,3.674004486807267e-14,-299.8225524555912,0.0,0.0,0.0,300.00000000000085,3.141592653589793,0.0,0.0,0.0,0.0,0.0,0.0,0.0,0.0,1.97074495835818,3.5609290220291216e-18,10000.0003830307
2,Target,10.9,6384384.785899661,4.004630456556462e-13,218185.50302705768,10.315415313709714,3.6740050716097644e-14,-299.82260122763626,0.0,0.0,0.0,300.00000000000085,3.141592653589793,0.0,0.0,0.0,0.0,0.0,0.0,0.0,0.0,1.970474078294651,3.593900295248266e-18,10000.0003865763
2,Target,11.0,6384385.817366773,4.0413705103420523e-13,218155.52076437467,10.31399782759094,3.6740056562490244e-14,-299.82264999297996,0.0,0.0,0.0,300.00000000000085,3.141592653589793,0.0,0.0,0.0,0.0,0.0,0.0,0.0,0.0,1.9702031982302395,3.626871563140195e-18,10000.000390120911
2,Target,11.1,6384386.848692142,4.078110569973177e-13,218125.53849681534,10.312580341237,3.674006240725047e-14,-299.82269875162234,0.0,0.0,0.0,300.0000000000009,3.141592653589793,0.0,0.0,0.0,0.0,0.0,0.0,0.0,0.0,1.9699323181649435,3.659842825705638e-18,10000.000393671058
2,Target,11.200000000000001,6384387.87987576,4.1148506354482037e-13,218095.55622438077,10.311162854647955,3.67400682503783e-14,-299.8227475035632,0.0,0.0,0.0,300.00000000000085,3.141592653589793,0.0,0.0,0.0,0.0,0.0,0.0,0.0,0.0,1.9696614380987687,3.692814082945332e-18,10000.000397218348
2,Target,11.3,6384388.910917627,4.1515907067655013e-13,218065.5739470714,10.309745367823831,3.6740074091873754e-14,-299.8227962488028,0.0,0.0,0.0,300.0000000000008,3.141592653589793,0.0,0.0,0.0,0.0,0.0,0.0,0.0,0.0,1.969390558031713,3.725785334860012e-18,10000.000400763716
2,Target,11.4,6384389.941817737,4.1883307839234363e-13,218035.59166488782,10.30832788076467,3.6740079931736844e-14,-299.82284498734106,0.0,0.0,0.0,300.00000000000085,3.141592653589793,0.0,0.0,0.0,0.0,0.0,0.0,0.0,0.0,1.9691196779637778,3.758756581450414e-18,10000.000404301572
2,Target,11.5,6384390.972576103,4.2250708669203793e-13,218005.6093778307,10.30691039347048,3.674008576996756e-14,-299.82289371917807,0.0,0.0,0.0,300.00000000000097,3.141592653589793,0.0,0.0,0.0,0.0,0.0,0.0,0.0,0.0,1.9688487978949585,3.791727822717267e-18,10000.00040784309
2,Target,11.6,6384392.003192722,4.261810955754694e-13,217975.62708590034,10.305492905941273,3.6740091606565884e-14,-299.8229424443136,0.0,0.0,0.0,300.00000000000097,3.141592653589793,0.0,0.0,0.0,0.0,0.0,0.0,0.0,0.0,1.9685779178252545,3.824699058661304e-18,10000.000411385488
2,Target,11.700000000000001,6384393.033667593,4.298551050424752e-13,217945.6447890982,10.304075418177126,3.6740097441531833e-14,-299.8229911627477,0.0,0.0,0.0,300.00000000000097,3.141592653589793,0.0,0.0,0.0,0.0,0.0,0.0,0.0,0.0,1.9683070377546714,3.857670289283261e-18,10000.000414930626
2,Target,11.8,6384394.064000714,4.335291150928916e-13,217915.6624874244,10.302657930178048,3.67401032748654e-14,-299.8230398744805,0.0,0.0,0.0,300.00000000000097,3.141592653589793,0.0,0.0,0.0,0.0,0.0,0.0,0.0,0.0,1.968036157683206,3.89064151458387e-18,10000.000418473834
2,Target,11.9,6384395.094192093,4.37203125726556e-13,217885.68018087992,10.301240441944072,3.674010910656659e-14,-299.8230885795118,0.0,0.0,0.0,300.0000000000009,3.141592653589793,0.0,0.0,0.0,0.0,0.0,0.0,0.0,0.0,1.967765277610858,3.923612734563865e-18,10000.00042202351
2,Target,12.0,6384396.124241715,4.4087713694330507e-13,217855.69786946534,10.299822953475257,3.674011493663541e-14,-299.82313727784197,0.0,0.0,0.0,300.000000000001,3.141592653589793,0.0,0.0,0.0,0.0,0.0,0.0,0.0,0.0,1.967494397537633,3.956583949223988e-18,10000.000425565673
2,Target,12.1,6384397.154149589,4.4455114874297513e-13,217825.71555318107,10.298405464771596,3.6740120765071846e-14,-299.8231859694706,0.0,0.0,0.0,300.00000000000097,3.141592653589793,0.0,0.0,0.0,0.0,0.0,0.0,0.0,0.0,1.9672235174635242,3.989555158564964e-18,10000.000429107777
2,Target,12.200000000000001,6384398.183915711,4.482251611254027e-13,217795.7332320278,10.29698797583314,3.6740126591875906e-14,-299.8232346543979,0.0,0.0,0.0,300.00000000000097,3.141592653589793,0.0,0.0,0.0,0.0,0.0,0.0,0.0,0.0,1.9669526373885344,4.022526362587526e-18,10000.000432647028
2,Target,12.3,6384399.213540087,4.518991740904252e-13,217765.75090600678,10.295570486659933,3.6740132417047585e-14,-299.82328333262376,0.0,0.0,0.0,300.00000000000097,3.141592653589793,0.0,0.0,0.0,0.0,0.0,0.0,0.0,0.0,1.9666817573126654,4.05549756129241e-18,10000.00043619181
2,Target,12.4,6384400.24302272,4.555731876378793e-13,217735.76857511816,10.294152997251981,3.674013824058689e-14,-299.8233320041483,0.0,0.0,0.0,300.00000000000097,3.141592653589793,0.0,0.0,0.0,0.0,0.0,0.0,0.0,0.0,1.9664108772359137,4.0884687546803484e-18,10000.000439738398
2,Target,12.5,6384401.272363605,4.592472017676016e-13,217705.7862393629,10.292735507609338,3.6740144062493816e-14,-299.8233806689715,0.0,0.0,0.0,300.00000000000097,3.141592653589793,0.0,0.0,0.0,0.0,0.0,0.0,0.0,0.0,1.9661399971582827,4.1214399427520745e-18,10000.000443287725
2,Target,12.6,6384402.301562742,4.629212164794296e-13,217675.8038987416,10.291318017732024,3.6740149882768354e-14,-299.82342932709315,0.0,0.0,0.0,300.00000000000085,3.141592653589793,0.0,0.0,0.0,0.0,0.0,0.0,0.0,0.0,1.9658691170797717,4.154411125508331e-18,10000.000446837923
2,Target,12.700000000000001,6384403.330620125,4.665952317731988e-13,217645.8215532549,10.289900527620095,3.6740155701410525e-14,-299.82347797851355,0.0,0.0,0.0,300.00000000000085,3.141592653589793,0.0,0.0,0.0,0.0,0.0,0.0,0.0,0.0,1.965598237000383,4.187382302949842e-18,10000.00045038341
2,Target,12.8,6384404.35953576,4.702692476487464e-13,217615.83920290312,10.288483037273547,3.674016151842032e-14,-299.82352662323257,0.0,0.0,0.0,300.00000000000085,3.141592653589793,0.0,0.0,0.0,0.0,0.0,0.0,0.0,0.0,1.9653273569201104,4.220353475077343e-18,10000.000453929762
2,Target,12.9,6384405.38830964,4.739432641059085e-13,217585.85684768716,10.287065546692443,3.6740167333797756e-14,-299.8235752612503,0.0,0.0,0.0,300.00000000000097,3.141592653589793,0.0,0.0,0.0,0.0,0.0,0.0,0.0,0.0,1.9650564768389593,4.253324641891565e-18,10000.00045746954
2,Target,13.0,6384406.416941777,4.776172811445233e-13,217555.87448760777,10.285648055876784,3.674017314754279e-14,-299.8236238925665,0.0,0.0,0.0,300.0000000000009,3.141592653589793,0.0,0.0,0.0,0.0,0.0,0.0,0.0,0.0,1.964785596756927,4.286295803393248e-18,10000.000461016709
2,Target,13.1,6384407.445432165,4.812912987644272e-13,217525.89212266577,10.284230564826629,3.674017895965545e-14,-299.8236725171813,0.0,0.0,0.0,300.00000000000085,3.141592653589793,0.0,0.0,0.0,0.0,0.0,0.0,0.0,0.0,1.9645147166740167,4.319266959583125e-18,10000.00046456196
2,Target,13.200000000000001,6384408.473780805,4.849653169654572e-13,217495.90975286154,10.282813073541996,3.674018477013574e-14,-299.82372113509484,0.0,0.0,0.0,300.00000000000085,3.141592653589793,0.0,0.0,0.0,0.0,0.0,0.0,0.0,0.0,1.964243836590224,4.352238110461932e-18,10000.000468111808
2,Target,13.3,6384409.501987693,4.886393357474489e-13,217465.92737819583,10.281395582022931,3.674019057898366e-14,-299.823769746307,0.0,0.0,0.0,300.0000000000009,3.141592653589793,0.0,0.0,0.0,0.0,0.0,0.0,0.0,0.0,1.9639729565055535,4.385209256030395e-18,10000.000471654148
2,Target,13.4,6384410.53005284,4.923133551102403e-13,217435.94499866958,10.279978090269449,3.67401963861992e-14,-299.8238183508177,0.0,0.0,0.0,300.0000000000009,3.141592653589793,0.0,0.0,0.0,0.0,0.0,0.0,0.0,0.0,1.9637020764200028,4.418180396289252e-18,10000.000475208542
2,Target,13.5,6384411.557976231,4.959873750536669e-13,217405.96261428305,10.278560598281596,3.674020219178236e-14,-299.82386694862697,0.0,0.0,0.0,300.00000000000085,3.141592653589793,0.0,0.0,0.0,0.0,0.0,0.0,0.0,0.0,1.9634311963335735,4.4511515312392335e-18,10000.000478754495
2,Target,13.6,6384412.585757869,4.996613955775659e-13,217375.98022503714,10.27714310605941,3.674020799573314e-14,-299.8239155397349,0.0,0.0,0.0,300.00000000000085,3.141592653589793,0.0,0.0,0.0,0.0,0.0,0.0,0.0,0.0,1.9631603162462665,4.4841226608810785e-18,10000.00048229759
2,Target,13.700000000000001,6384413.613397758,5.033354166817742e-13,217345.9978309323,10.275725613602905,3.6740213798051554e-14,-299.82396412414147,0.0,0.0,0.0,300.00000000000085,3.141592653589793,0.0,0.0,0.0,0.0,0.0,0.0,0.0,0.0,1.962889436158079,4.517093785215516e-18,10000.000485839699
2,Target,13.8,6384414.640895896,5.070094383661285e-13,217316.01543196957,10.274308120912133,3.674021959873759e-14,-299.8240127018466,0.0,0.0,0.0,300.00000000000085,3.141592653589793,0.0,0.0,0.0,0.0,0.0,0.0,0.0,0.0,1.962618556069015,4.550064904243284e-18,10000.000489378954
2,Target,13.9,6384415.668252288,5.106834606304658e-13,217286.03302814922,10.272890627987104,3.674022539779126e-14,-299.8240612728505,0.0,0.0,0.0,300.00000000000097,3.141592653589793,0.0,0.0,0.0,0.0,0.0,0.0,0.0,0.0,1.9623476759790688,4.5830360179651095e-18,10000.000492923738
2,Target,14.0,6384416.695466932,5.143574834746227e-13,217256.0506194723,10.271473134827863,3.674023119521255e-14,-299.82410983715283,0.0,0.0,0.0,300.00000000000097,3.141592653589793,0.0,0.0,0.0,0.0,0.0,0.0,0.0,0.0,1.9620767958882457,4.616007126381732e-18,10000.000496469402
2,Target,14.1,6384417.722539826,5.180315068984362e-13,217226.068205939,10.27005564143443,3.674023699100146e-14,-299.82415839475385,0.0,0.0,0.0,300.000000000001,3.141592653589793,0.0,0.0,0.0,0.0,0.0,0.0,0.0,0.0,1.9618059157965413,4.648978229493886e-18,10000.000500015005
2,Target,14.200000000000001,6384418.749470967,5.21705530901743e-13,217196.08578755034,10.268638147806854,3.674024278515799e-14,-299.8242069456534,0.0,0.0,0.0,300.00000000000097,3.141592653589793,0.0,0.0,0.0,0.0,0.0,0.0,0.0,0.0,1.961535035703961,4.681949327302306e-18,10000.000503555895
2,Target,14.3,6384419.776260358,5.253795554843795e-13,217166.10336430746,10.267220653945186,3.674024857768214e-14,-299.8242554898515,0.0,0.0,0.0,300.0000000000009,3.141592653589793,0.0,0.0,0.0,0.0,0.0,0.0,0.0,0.0,1.9612641556105053,4.714920419807722e-18,10000.000507096724
2,Target,14.4,6384420.802908008,5.29053580646183e-13,217136.12093621018,10.265803159849407,3.674025436857392e-14,-299.8243040273482,0.0,0.0,0.0,300.00000000000085,3.141592653589793,0.0,0.0,0.0,0.0,0.0,0.0,0.0,0.0,1.9609932755161672,4.747891507010865e-18,10000.000510644952
2,Target,14.5,6384421.829413905,5.327276063869899e-13,217106.13850325943,10.26438566551958,3.674026015783334e-14,-299.82435255814374,0.0,0.0,0.0,300.000000000001,3.141592653589793,0.0,0.0,0.0,0.0,0.0,0.0,0.0,0.0,1.9607223954209516,4.7808625889124744e-18,10000.000514190326
2,Target,14.6,6384422.855778053,5.364016327066375e-13,217076.1560654561,10.262968170955736,3.674026594546038e-14,-299.82440108223767,0.0,0.0,0.0,300.00000000000097,3.141592653589793,0.0,0.0,0.0,0.0,0.0,0.0,0.0,0.0,1.9604515153248594,4.8138336655132866e-18,10000.000517735645
2,Target,14.700000000000001,6384423.88200045,5.400756596049617e-13,217046.1736228005,10.2615506761579,3.674027173145504e-14,-299.82444959963027,0.0,0.0,0.0,300.00000000000097,3.141592653589793,0.0,0.0,0.0,0.0,0.0,0.0,0.0,0.0,1.9601806352278872,4.846804736814028e-18,10000.000521279972
2,Target,14.8,6384424.908081101,5.437496870817999e-13,217016.19117529388,10.260133181126124,3.674027751581734e-14,-299.8244981103216,0.0,0.0,0.0,300.00000000000114,3.141592653589793,0.0,0.0,0.0,0.0,0.0,0.0,0.0,0.0,1.9599097551300395,4.8797758028154355e-18,10000.00052482797
2,Target,14.9,6384425.934020002,5.474237151369888e-13,216986.20872293646,10.258715685860407,3.674028329854724e-14,-299.8245466143112,0.0,0.0,0.0,300.00000000000097,3.141592653589793,0.0,0.0,0.0,0.0,0.0,0.0,0.0,0.0,1.9596388750313145,4.912746863518244e-18,10000.000528374978
2,Target,15.0,6384426.959817143,5.510977437703639e-13,216956.2262657288,10.257298190360817,3.6740289079644774e-14,-299.82459511159954,0.0,0.0,0.0,300.00000000000097,3.141592653589793,0.0,0.0,0.0,0.0,0.0,0.0,0.0,0.0,1.9593679949317129,4.945717918923183e-18,10000.000531910751
2,Target,15.1,6384427.985472545,5.54771772981764e-13,216926.2438036716,10.255880694627344,3.674029485910994e-14,-299.8246436021865,0.0,0.0,0.0,300.00000000000097,3.141592653589793,0.0,0.0,0.0,0.0,0.0,0.0,0.0,0.0,1.9590971148312295,4.9786889690309906e-18,10000.000535459505
2,Target,15.200000000000001,6384429.010986203,5.584458027710252e-13,216896.26133676595,10.254463198660044,3.674030063694273e-14,-299.824692086072,0.0,0.0,0.0,300.0000000000009,3.141592653589793,0.0,0.0,0.0,0.0,0.0,0.0,0.0,0.0,1.9588262347298686,5.011660013842397e-18,10000.000539011933
2,Target,15.3,6384430.03635811,5.621198331379838e-13,216866.27886501246,10.25304570245897,3.6740306413143147e-14,-299.82474056325617,0.0,0.0,0.0,300.00000000000097,3.141592653589793,0.0,0.0,0.0,0.0,0.0,0.0,0.0,0.0,1.9585553546276344,5.044631053358138e-18,10000.000542562442
2,Target,15.4,6384431.061588259,5.657938640824765e-13,216836.29638841152,10.251628206024133,3.674031218771117e-14,-299.82478903373874,0.0,0.0,0.0,300.00000000000085,3.141592653589793,0.0,0.0,0.0,0.0,0.0,0.0,0.0,0.0,1.9582844745245238,5.0776020875789514e-18,10000.000546106368
2,Target,15.5,6384432.086676662,5.694678956043409e-13,216806.31390696394,10.25021070935557,3.674031796064685e-14,-299.8248374975201,0.0,0.0,0.0,300.00000000000085,3.141592653589793,0.0,0.0,0.0,0.0,0.0,0.0,0.0,0.0,1.9580135944205368,5.110573116505569e-18,10000.000549653038
2,Target,15.6,6384433.111623317,5.731419277034129e-13,216776.33142067032,10.248793212453311,3.6740323731950146e-14,-299.8248859546,0.0,0.0,0.0,300.00000000000085,3.141592653589793,0.0,0.0,0.0,0.0,0.0,0.0,0.0,0.0,1.9577427143156718,5.1435441401387175e-18,10000.000553201511
2,Target,15.700000000000001,6384434.136428215,5.768159603795286e-13,216746.3489295312,10.247375715317393,3.674032950162108e-14,-299.8249344049786,0.0,0.0,0.0,300.00000000000097,3.141592653589793,0.0,0.0,0.0,0.0,0.0,0.0,0.0,0.0,1.9574718342099309,5.176515158479136e-18,10000.00055674247
2,Target,15.8,6384435.1610913575,5.804899936325255e-13,216716.3664335472,10.245958217947834,3.6740335269659623e-14,-299.8249828486555,0.0,0.0,0.0,300.00000000000085,3.141592653589793,0.0,0.0,0.0,0.0,0.0,0.0,0.0,0.0,1.9572009541033135,5.209486171527558e-18,10000.000560277784
2,Target,15.9,6384436.18561276,5.841640274622412e-13,216686.38393271907,10.244540720344661,3.67403410360658e-14,-299.82503128563116,0.0,0.0,0.0,300.00000000000085,3.141592653589793,0.0,0.0,0.0,0.0,0.0,0.0,0.0,0.0,1.9569300739958162,5.242457179284716e-18,10000.000563823289
2,Target,16.0,6384437.209992409,5.878380618685111e-13,216656.40142704797,10.243123222507949,3.6740346800839617e-14,-299.82507971590553,0.0,0.0,0.0,300.00000000000097,3.141592653589793,0.0,0.0,0.0,0.0,0.0,0.0,0.0,0.0,1.9566591938874465,5.275428181751341e-18,10000.00056736501
2,Target,16.1,6384438.234230313,5.915120968511738e-13,216626.41891653382,10.241705724437669,3.674035256398105e-14,-299.8251281394783,0.0,0.0,0.0,300.00000000000097,3.141592653589793,0.0,0.0,0.0,0.0,0.0,0.0,0.0,0.0,1.9563883137781963,5.308399178928176e-18,10000.000570911337
2,Target,16.2,6384439.258326468,5.951861324100649e-13,216596.43640117795,10.240288226133902,3.674035832549011e-14,-299.82517655634973,0.0,0.0,0.0,300.00000000000097,3.141592653589793,0.0,0.0,0.0,0.0,0.0,0.0,0.0,0.0,1.9561174336680727,5.341370170815949e-18,10000.00057445854
2,Target,16.3,6384440.282280877,5.988601685450213e-13,216566.4538809808,10.238870727596655,3.6740364085366785e-14,-299.82522496651967,0.0,0.0,0.0,300.00000000000097,3.141592653589793,0.0,0.0,0.0,0.0,0.0,0.0,0.0,0.0,1.955846553557072,5.374341157415391e-18,10000.00057800941
2,Target,16.4,6384441.306093528,6.025342052558786e-13,216536.47135594266,10.237453228825972,3.6740369843611096e-14,-299.8252733699881,0.0,0.0,0.0,300.00000000000085,3.141592653589793,0.0,0.0,0.0,0.0,0.0,0.0,0.0,0.0,1.955575673445196,5.407312138727237e-18,10000.000581551838
2,Target,16.5,6384442.329764429,6.062082425424753e-13,216506.4888260649,10.236035729821902,3.674037560022305e-14,-299.82532176675534,0.0,0.0,0.0,300.0000000000009,3.141592653589793,0.0,0.0,0.0,0.0,0.0,0.0,0.0,0.0,1.9553047933324474,5.440283114752228e-18,10000.000585094207
2,Target,16.6,6384443.353293583,6.098822804046479e-13,216476.50629134753,10.234618230584433,3.67403813552026e-14,-299.8253701568209,0.0,0.0,0.0,300.0000000000008,3.141592653589793,0.0,0.0,0.0,0.0,0.0,0.0,0.0,0.0,1.9550339132188193,5.473254085491093e-18,10000.000588640249
2,Target,16.7,6384444.376680985,6.135563188422318e-13,216446.52375179157,10.233200731113637,3.6740387108549807e-14,-299.82541854018524,0.0,0.0,0.0,300.00000000000085,3.141592653589793,0.0,0.0,0.0,0.0,0.0,0.0,0.0,0.0,1.9547630331043175,5.506225050944557e-18,10000.000592182507
2,Target,16.8,6384445.399926637,6.172303578550649e-13,216416.54120739794,10.231783231409546,3.674039286026463e-14,-299.82546691684803,0.0,0.0,0.0,300.00000000000085,3.141592653589793,0.0,0.0,0.0,0.0,0.0,0.0,0.0,0.0,1.9544921529889432,5.539196011113365e-18,10000.000595726573
2,Target,16.9,6384446.423030535,6.209043974429835e-13,216386.55865816658,10.230365731472167,3.6740398610347085e-14,-299.8255152868095,0.0,0.0,0.0,300.00000000000085,3.141592653589793,0.0,0.0,0.0,0.0,0.0,0.0,0.0,0.0,1.9542212728726915,5.572166965998247e-18,10000.000599265924
2,Target,17.0,6384447.445992687,6.245784376058251e-13,216356.57610409873,10.228948231301546,3.674040435879718e-14,-299.8255636500696,0.0,0.0,0.0,300.00000000000097,3.141592653589793,0.0,0.0,0.0,0.0,0.0,0.0,0.0,0.0,1.9539503927555646,5.605137915599938e-18,10000.000602808943
2,Target,17.1,6384448.468813094,6.282524783434263e-13,216326.593545195,10.227530730897701,3.674041010561488e-14,-299.82561200662803,0.0,0.0,0.0,300.00000000000085,3.141592653589793,0.0,0.0,0.0,0.0,0.0,0.0,0.0,0.0,1.9536795126375617,5.638108859919169e-18,10000.000606358426
2,Target,17.2,6384449.491491744,6.319265196556232e-13,216296.61098145568,10.226113230260676,3.674041585080022e-14,-299.8256603564852,0.0,0.0,0.0,300.00000000000085,3.141592653589793,0.0,0.0,0.0,0.0,0.0,0.0,0.0,0.0,1.9534086325186844,5.671079798956679e-18,10000.000609900406
2,Target,17.3,6384450.514028652,6.35600561542254e-13,216266.62841288233,10.224695729390525,3.674042159435319e-14,-299.82570869964087,0.0,0.0,0.0,300.00000000000085,3.141592653589793,0.0,0.0,0.0,0.0,0.0,0.0,0.0,0.0,1.953137752398935,5.7040507327131996e-18,10000.000613448849
2,Target,17.400000000000002,6384451.536423807,6.392746040031535e-13,216236.6458394746,10.223278228287242,3.67404273362738e-14,-299.8257570360952,0.0,0.0,0.0,300.0000000000009,3.141592653589793,0.0,0.0,0.0,0.0,0.0,0.0,0.0,0.0,1.952866872278308,5.737021661189458e-18,10000.000616995374
2,Target,17.5,6384452.558677208,6.429486470381593e-13,216206.66326123383,10.221860726950894,3.674043307656202e-14,-299.82580536584794,0.0,0.0,0.0,300.00000000000085,3.141592653589793,0.0,0.0,0.0,0.0,0.0,0.0,0.0,0.0,1.9525959921568108,5.769992584386197e-18,10000.00062053811
2,Target,17.6,6384453.580788863,6.466226906471087e-13,216176.68067816037,10.220443225381485,3.674043881521787e-14,-299.8258536888993,0.0,0.0,0.0,300.00000000000085,3.141592653589793,0.0,0.0,0.0,0.0,0.0,0.0,0.0,0.0,1.9523251120344363,5.802963502304145e-18,10000.00062408545
2,Target,17.7,6384454.602758765,6.502967348298376e-13,216146.69809025462,10.219025723579037,3.6740444552241324e-14,-299.825902005249,0.0,0.0,0.0,300.0000000000006,3.141592653589793,0.0,0.0,0.0,0.0,0.0,0.0,0.0,0.0,1.9520542319111862,5.8359344149440365e-18,10000.000627629945
2,Target,17.8,6384455.624586919,6.539707795861834e-13,216116.71549751773,10.21760822154362,3.674045028763245e-14,-299.8259503148976,0.0,0.0,0.0,300.0000000000007,3.141592653589793,0.0,0.0,0.0,0.0,0.0,0.0,0.0,0.0,1.9517833517870622,5.868905322306607e-18,10000.00063117717
2,Target,17.900000000000002,6384456.64627332,6.576448249159825e-13,216086.7328999504,10.216190719275259,3.674045602139119e-14,-299.8259986178447,0.0,0.0,0.0,300.0000000000007,3.141592653589793,0.0,0.0,0.0,0.0,0.0,0.0,0.0,0.0,1.9515124716620673,5.90187622439259e-18,10000.000634718755
2,Target,18.0,6384457.667817978,6.613188708190723e-13,216056.75029755343,10.214773216773978,3.6740461753517566e-14,-299.82604691409034,0.0,0.0,0.0,300.0000000000007,3.141592653589793,0.0,0.0,0.0,0.0,0.0,0.0,0.0,0.0,1.9512415915361985,5.934847121202716e-18,10000.00063827053
2,Target,18.1,6384458.689220878,6.64992917295288e-13,216026.76769032658,10.213355714039796,3.6740467484011567e-14,-299.8260952036345,0.0,0.0,0.0,300.0000000000007,3.141592653589793,0.0,0.0,0.0,0.0,0.0,0.0,0.0,0.0,1.9509707114094537,5.96781801273772e-18,10000.000641812936
2,Target,18.2,6384459.7104820255,6.686669643444677e-13,215996.7850782713,10.211938211072757,3.674047321287319e-14,-299.82614348647706,0.0,0.0,0.0,300.0000000000005,3.141592653589793,0.0,0.0,0.0,0.0,0.0,0.0,0.0,0.0,1.9506998312818369,6.0007888989983416e-18,10000.000645354354
2,Target,18.3,6384460.731601428,6.723410119664479e-13,215966.8024613881,10.210520707872899,3.6740478940102447e-14,-299.8261917626184,0.0,0.0,0.0,300.0000000000005,3.141592653589793,0.0,0.0,0.0,0.0,0.0,0.0,0.0,0.0,1.9504289511533455,6.0337597799853035e-18,10000.00064890037
2,Target,18.400000000000002,6384461.752579085,6.76015060161066e-13,215936.8198396781,10.20910320444026,3.6740484665699344e-14,-299.82624003205825,0.0,0.0,0.0,300.0000000000005,3.141592653589793,0.0,0.0,0.0,0.0,0.0,0.0,0.0,0.0,1.9501580710239832,6.066730655699348e-18,10000.000652450988
2,Target,18.5,6384462.773414978,6.796891089281569e-13,215906.83721314103,10.20768570077486,3.674049038966387e-14,-299.82628829479665,0.0,0.0,0.0,300.0000000000005,3.141592653589793,0.0,0.0,0.0,0.0,0.0,0.0,0.0,0.0,1.9498871908937476,6.099701526141208e-18,10000.00065598758
2,Target,18.6,6384463.794109133,6.833631582675597e-13,215876.85458177814,10.206268196876723,3.6740496111996036e-14,-299.8263365508337,0.0,0.0,0.0,300.00000000000057,3.141592653589793,0.0,0.0,0.0,0.0,0.0,0.0,0.0,0.0,1.9496163107626359,6.132672391311614e-18,10000.00065953809
2,Target,18.7,6384464.814661538,6.870372081791096e-13,215846.87194558984,10.204850692745879,3.6740501832695824e-14,-299.82638480016925,0.0,0.0,0.0,300.0000000000007,3.141592653589793,0.0,0.0,0.0,0.0,0.0,0.0,0.0,0.0,1.9493454306306504,6.165643251211298e-18,10000.000663087612
2,Target,18.8,6384465.835072184,6.907112586626436e-13,215816.88930457708,10.203433188382391,3.674050755176324e-14,-299.82643304280333,0.0,0.0,0.0,300.0000000000007,3.141592653589793,0.0,0.0,0.0,0.0,0.0,0.0,0.0,0.0,1.9490745504977944,6.1986141058410035e-18,10000.000666629623
2,Target,18.900000000000002,6384466.855341082,6.943853097179983e-13,215786.9066587405,10.202015683786275,3.6740513269198284e-14,-299.8264812787359,0.0,0.0,0.0,300.0000000000007,3.141592653589793,0.0,0.0,0.0,0.0,0.0,0.0,0.0,0.0,1.9488036703640672,6.231584955201451e-18,10000.000670174377
2,Target,19.0,6384467.875468234,6.980593613450113e-13,215756.92400808044,10.200598178957545,3.674051898500099e-14,-299.8265295079673,0.0,0.0,0.0,300.0000000000009,3.141592653589793,0.0,0.0,0.0,0.0,0.0,0.0,0.0,0.0,1.9485327902294627,6.264555799293384e-18,10000.000673721868
2,Target,19.1,6384468.895453637,7.017334135435197e-13,215726.94135259802,10.199180673896258,3.674052469917131e-14,-299.8265777304971,0.0,0.0,0.0,300.00000000000097,3.141592653589793,0.0,0.0,0.0,0.0,0.0,0.0,0.0,0.0,1.9482619100939877,6.297526638117537e-18,10000.000677272099
2,Target,19.2,6384469.915297287,7.054074663133583e-13,215696.9586922936,10.197763168602433,3.674053041170925e-14,-299.8266259463253,0.0,0.0,0.0,300.00000000000097,3.141592653589793,0.0,0.0,0.0,0.0,0.0,0.0,0.0,0.0,1.947991029957641,6.330497471674632e-18,10000.00068081855
2,Target,19.3,6384470.934999186,7.090815196543652e-13,215666.9760271678,10.196345663076102,3.674053612261482e-14,-299.8266741554521,0.0,0.0,0.0,300.00000000000097,3.141592653589793,0.0,0.0,0.0,0.0,0.0,0.0,0.0,0.0,1.9477201498204195,6.363468299965413e-18,10000.000684365874
2,Target,19.400000000000002,6384471.954559332,7.127555735663772e-13,215636.99335722154,10.194928157317307,3.674054183188802e-14,-299.8267223578774,0.0,0.0,0.0,300.0000000000009,3.141592653589793,0.0,0.0,0.0,0.0,0.0,0.0,0.0,0.0,1.9474492696823285,6.396439122990616e-18,10000.00068791035
2,Target,19.5,6384472.973977723,7.164296280492294e-13,215607.01068245515,10.193510651326074,3.6740547539528857e-14,-299.8267705536013,0.0,0.0,0.0,300.00000000000097,3.141592653589793,0.0,0.0,0.0,0.0,0.0,0.0,0.0,0.0,1.947178389543364,6.4294099407509604e-18,10000.00069145104
2,Target,19.6,6384473.993254372,7.201036831027613e-13,215577.02800286986,10.192093145102437,3.674055324553732e-14,-299.82681874262374,0.0,0.0,0.0,300.00000000000097,3.141592653589793,0.0,0.0,0.0,0.0,0.0,0.0,0.0,0.0,1.9469075094035284,6.462380753247196e-18,10000.000694999133
2,Target,19.7,6384475.012389263,7.237777387268078e-13,215547.04531846612,10.190675638646445,3.674055894991342e-14,-299.8268669249447,0.0,0.0,0.0,300.00000000000097,3.141592653589793,0.0,0.0,0.0,0.0,0.0,0.0,0.0,0.0,1.9466366292628234,6.495351560480049e-18,10000.000698541575
2,Target,19.8,6384476.031382413,7.274517949212071e-13,215517.06262924423,10.189258131958086,3.674056465265715e-14,-299.8269151005642,0.0,0.0,0.0,300.00000000000097,3.141592653589793,0.0,0.0,0.0,0.0,0.0,0.0,0.0,0.0,1.946365749121242,6.528322362450254e-18,10000.00070209235
2,Target,19.900000000000002,6384477.050233807,7.311258516857953e-13,215487.07993520529,10.187840625037436,3.674057035376851e-14,-299.8269632694822,0.0,0.0,0.0,300.00000000000097,3.141592653589793,0.0,0.0,0.0,0.0,0.0,0.0,0.0,0.0,1.946094868978792,6.561293159158553e-18,10000.000705638413
2,Target,20.0,6384478.068943451,7.347999090204083e-13,215457.09723634992,10.18642311788452,3.6740576053247506e-14,-299.8270114316988,0.0,0.0,0.0,300.000000000001,3.141592653589793,0.0,0.0,0.0,0.0,0.0,0.0,0.0,0.0,1.9458239888354718,6.594263950605664e-18,10000.00070918442
2,Target,20.1,6384479.087511352,7.384739669248847e-13,215427.11453267877,10.185005610499342,3.6740581751094126e-14,-299.82705958721385,0.0,0.0,0.0,300.00000000000097,3.141592653589793,0.0,0.0,0.0,0.0,0.0,0.0,0.0,0.0,1.9455531086912783,6.6272347367923315e-18,10000.000712738756
2,Target,20.2,6384480.10593749,7.421480253990586e-13,215397.13182419227,10.183588102881973,3.6740587447308384e-14,-299.8271077360275,0.0,0.0,0.0,300.00000000000097,3.141592653589793,0.0,0.0,0.0,0.0,0.0,0.0,0.0,0.0,1.9452822285462164,6.660205517719285e-18,10000.000716280925
2,Target,20.3,6384481.124221881,7.458220844427681e-13,215367.14911089122,10.18217059503242,3.6740593141890275e-14,-299.82715587813965,0.0,0.0,0.0,300.00000000000097,3.141592653589793,0.0,0.0,0.0,0.0,0.0,0.0,0.0,0.0,1.945011348400282,6.693176293387255e-18,10000.000719825834
2,Target,20.400000000000002,6384482.142364522,7.494961440558504e-13,215337.16639277636,10.180753086950721,3.674059883483979e-14,-299.8272040135503,0.0,0.0,0.0,300.0000000000009,3.141592653589793,0.0,0.0,0.0,0.0,0.0,0.0,0.0,0.0,1.9447404682534766,6.726147063796982e-18,10000.000723373481
2,Target,20.5,6384483.160365409,7.531702042381421e-13,215307.1836698482,10.17933557863691,3.674060452615695e-14,-299.82725214225945,0.0,0.0,0.0,300.0000000000009,3.141592653589793,0.0,0.0,0.0,0.0,0.0,0.0,0.0,0.0,1.944469588105801,6.7591178289492e-18,10000.00072691642
2,Target,20.6,6384484.1782245515,7.568442649894802e-13,215277.20094210753,10.177918070091005,3.674061021584173e-14,-299.8273002642672,0.0,0.0,0.0,300.00000000000085,3.141592653589793,0.0,0.0,0.0,0.0,0.0,0.0,0.0,0.0,1.9441987079572527,6.792088588844637e-18,10000.000730464892
2,Target,20.7,6384485.195941933,7.605183263097001e-13,215247.2182095548,10.176500561313057,3.674061590389415e-14,-299.82734837957344,0.0,0.0,0.0,300.00000000000085,3.141592653589793,0.0,0.0,0.0,0.0,0.0,0.0,0.0,0.0,1.943927827807834,6.825059343484031e-18,10000.000734005851
2,Target,20.8,6384486.21351757,7.641923881986403e-13,215217.235472191,10.175083052303096,3.674062159031422e-14,-299.82739648817835,0.0,0.0,0.0,300.00000000000097,3.141592653589793,0.0,0.0,0.0,0.0,0.0,0.0,0.0,0.0,1.9436569476575456,6.858030092868117e-18,10000.000737550488
2,Target,20.900000000000002,6384487.230951452,7.678664506561357e-13,215187.25273001657,10.173665543061146,3.67406272751019e-14,-299.8274445900816,0.0,0.0,0.0,300.00000000000085,3.141592653589793,0.0,0.0,0.0,0.0,0.0,0.0,0.0,0.0,1.9433860675063857,6.891000836997618e-18,10000.00074109227
2,Target,21.0,6384488.248243583,7.715405136820246e-13,215157.2699830325,10.172248033587257,3.6740632958257226e-14,-299.8274926852835,0.0,0.0,0.0,300.00000000000097,3.141592653589793,0.0,0.0,0.0,0.0,0.0,0.0,0.0,0.0,1.9431151873543577,6.9239715758732785e-18,10000.000744634932
2,Target,21.1,6384489.26539397,7.752145772761443e-13,215127.28723123937,10.170830523881442,3.674063863978018e-14,-299.82754077378394,0.0,0.0,0.0,300.00000000000097,3.141592653589793,0.0,0.0,0.0,0.0,0.0,0.0,0.0,0.0,1.942844307201459,6.956942309495833e-18,10000.00074818406
2,Target,21.2,6384490.282402609,7.788886414383306e-13,215097.30447463764,10.169413013943728,3.674064431967077e-14,-299.8275888555828,0.0,0.0,0.0,300.00000000000097,3.141592653589793,0.0,0.0,0.0,0.0,0.0,0.0,0.0,0.0,1.9425734270476884,6.989913037866009e-18,10000.000751734067
2,Target,21.3,6384491.299269487,7.825627061684197e-13,215067.3217132278,10.167995503774163,3.674064999792899e-14,-299.8276369306802,0.0,0.0,0.0,300.00000000000097,3.141592653589793,0.0,0.0,0.0,0.0,0.0,0.0,0.0,0.0,1.9423025468930486,7.022883760984546e-18,10000.000755277493
2,Target,21.400000000000002,6384492.315994622,7.862367714662493e-13,215037.33894701125,10.166577993372782,3.6740655674554845e-14,-299.82768499907615,0.0,0.0,0.0,300.00000000000097,3.141592653589793,0.0,0.0,0.0,0.0,0.0,0.0,0.0,0.0,1.94203166673754,7.055854478852169e-18,10000.00075882646
2,Target,21.5,6384493.332578004,7.899108373316559e-13,215007.35617598827,10.165160482739614,3.674066134954832e-14,-299.8277330607705,0.0,0.0,0.0,300.00000000000085,3.141592653589793,0.0,0.0,0.0,0.0,0.0,0.0,0.0,0.0,1.9417607865811635,7.088825191469622e-18,10000.000762375366
2,Target,21.6,6384494.3490196355,7.935849037644757e-13,214977.37340015924,10.163742971874685,3.6740667022909445e-14,-299.8277811157635,0.0,0.0,0.0,300.0000000000009,3.141592653589793,0.0,0.0,0.0,0.0,0.0,0.0,0.0,0.0,1.9414899064239153,7.121795898837627e-18,10000.00076592236
