,id,name,time,east,north,up,east_vel,north_vel,up_vel,east_accel,north_accel,up_accel,speed,yaw,pitch,roll,yaw_rate,pitch_rate,roll_rate,axial_accel,lateral_accel,vertical_accel
0,2,Target,0.0,0.0,185200.0,0.0,2.4492935982947064e-14,-200.0,0.0,0.0,0.0,0.0,200.0,3.141592653589793,0.0,0.0,0.0,0.0,0.0,0.0,0.0,0.0
1,2,Target,0.1,2.449293598294707e-15,185180.0,0.0,2.4492935982947064e-14,-200.0,0.0,0.0,0.0,0.0,200.0,3.141592653589793,0.0,0.0,0.0,0.0,0.0,0.0,0.0,0.0
2,2,Target,0.2,4.898587196589412e-15,185160.0,0.0,2.4492935982947064e-14,-200.0,0.0,0.0,0.0,0.0,200.0,3.141592653589793,0.0,0.0,0.0,0.0,0.0,0.0,0.0,0.0
3,2,Target,0.3,7.347880794884115e-15,185140.0,0.0,2.4492935982947064e-14,-200.0,0.0,0.0,0.0,0.0,200.0,3.141592653589793,0.0,0.0,0.0,0.0,0.0,0.0,0.0,0.0
4,2,Target,0.4,9.797174393178817e-15,185120.0,0.0,2.4492935982947064e-14,-200.0,0.0,0.0,0.0,0.0,200.0,3.141592653589793,0.0,0.0,0.0,0.0,0.0,0.0,0.0,0.0
5,2,Target,0.5,1.2246467991473516e-14,185100.0,0.0,2.4492935982947064e-14,-200.0,0.0,0.0,0.0,0.0,200.0,3.141592653589793,0.0,0.0,0.0,0.0,0.0,0.0,0.0,0.0
6,2,Target,0.6,1.4695761589768218e-14,185080.0,0.0,2.4492935982947064e-14,-200.0,0.0,0.0,0.0,0.0,200.0,3.141592653589793,0.0,0.0,0.0,0.0,0.0,0.0,0.0,0.0
7,2,Target,0.7000000000000001,1.714505518806292e-14,185060.0,0.0,2.4492935982947064e-14,-200.0,0.0,0.0,0.0,0.0,200.0,3.141592653589793,0.0,0.0,0.0,0.0,0.0,0.0,0.0,0.0
8,2,Target,0.8,1.959434878635762e-14,185040.0,0.0,2.4492935982947064e-14,-200.0,0.0,0.0,0.0,0.0,200.0,3.141592653589793,0.0,0.0,0.0,0.0,0.0,0.0,0.0,0.0
9,2,Target,0.9,2.204364238465232e-14,185020.0,0.0,2.4492935982947064e-14,-200.0,0.0,0.0,0.0,0.0,200.0,3.141592653589793,0.0,0.0,0.0,0.0,0.0,0.0,0.0,0.0
10,2,Target,1.0,2.449293598294702e-14,185000.0,0.0,2.4492935982947064e-14,-200.0,0.0,0.0,0.0,0.0,200.0,3.141592653589793,0.0,0.0,0.0,0.0,0.0,0.0,0.0,0.0
11,2,Target,1.1,2.6942229581241723e-14,184980.0,0.0,2.4492935982947064e-14,-200.0,0.0,0.0,0.0,0.0,200.0,3.141592653589793,0.0,0.0,0.0,0.0,0.0,0.0,0.0,0.0
12,2,Target,1.2,2.939152317953642e-14,184960.0,0.0,2.4492935982947064e-14,-200.0,0.0,0.0,0.0,0.0,200.0,3.141592653589793,0.0,0.0,0.0,0.0,0.0,0.0,0.0,0.0
13,2,Target,1.3,3.1840816777831126e-14,184940.0,0.0,2.4492935982947064e-14,-200.0,0.0,0.0,0.0,0.0,200.0,3.141592653589793,0.0,0.0,0.0,0.0,0.0,0.0,0.0,0.0
14,2,Target,1.4000000000000001,3.429011037612583e-14,184920.0,0.0,2.4492935982947064e-14,-200.0,0.0,0.0,0.0,0.0,200.0,3.141592653589793,0.0,0.0,0.0,0.0,0.0,0.0,0.0,0.0
15,2,Target,1.5,3.673940397442053e-14,184900.0,0.0,2.4492935982947064e-14,-200.0,0.0,0.0,0.0,0.0,200.0,3.141592653589793,0.0,0.0,0.0,0.0,0.0,0.0,0.0,0.0
16,2,Target,1.6,3.9188697572715235e-14,184880.0,0.0,2.4492935982947064e-14,-200.0,0.0,0.0,0.0,0.0,200.0,3.141592653589793,0.0,0.0,0.0,0.0,0.0,0.0,0.0,0.0
17,2,Target,1.7,4.163799117100994e-14,184860.0,0.0,2.4492935982947064e-14,-200.0,0.0,0.0,0.0,0.0,200.0,3.141592653589793,0.0,0.0,0.0,0.0,0.0,0.0,0.0,0.0
18,2,Target,1.8,4.408728476930464e-14,184840.0,0.0,2.4492935982947064e-14,-200.0,0.0,0.0,0.0,0.0,200.0,3.141592653589793,0.0,0.0,0.0,0.0,0.0,0.0,0.0,0.0
19,2,Target,1.9000000000000001,4.6536578367599344e-14,184820.0,0.0,2.4492935982947064e-14,-200.0,0.0,0.0,0.0,0.0,200.0,3.141592653589793,0.0,0.0,0.0,0.0,0.0,0.0,0.0,0.0
20,2,Target,2.0,4.8985871965894047e-14,184800.0,0.0,2.4492935982947064e-14,-200.0,0.0,0.0,0.0,0.0,200.0,3.141592653589793,0.0,0.0,0.0,0.0,0.0,0.0,0.0,0.0
21,2,Target,2.1,5.143516556418878e-14,184780.0,0.0,2.4492935982947064e-14,-200.0,0.0,0.0,0.0,0.0,200.0,3.141592653589793,0.0,0.0,0.0,0.0,0.0,0.0,0.0,0.0
22,2,Target,2.2,5.3884459162483516e-14,184760.0,0.0,2.4492935982947064e-14,-200.0,0.0,0.0,0.0,0.0,200.0,3.141592653589793,0.0,0.0,0.0,0.0,0.0,0.0,0.0,0.0
23,2,Target,2.3000000000000003,5.633375276077825e-14,184740.0,0.0,2.4492935982947064e-14,-200.0,0.0,0.0,0.0,0.0,200.0,3.141592653589793,0.0,0.0,0.0,0.0,0.0,0.0,0.0,0.0
24,2,Target,2.4,5.8783046359073e-14,184720.0,0.0,2.4492935982947064e-14,-200.0,0.0,0.0,0.0,0.0,200.0,3.141592653589793,0.0,0.0,0.0,0.0,0.0,0.0,0.0,0.0
25,2,Target,2.5,6.123233995736776e-14,184700.0,0.0,2.4492935982947064e-14,-200.0,0.0,0.0,0.0,0.0,200.0,3.141592653589793,0.0,0.0,0.0,0.0,0.0,0.0,0.0,0.0
26,2,Target,2.6,6.368163355566253e-14,184680.0,0.0,2.4492935982947064e-14,-200.0,0.0,0.0,0.0,0.0,200.0,3.141592653589793,0.0,0.0,0.0,0.0,0.0,0.0,0.0,0.0
27,2,Target,2.7,6.61309271539573e-14,184660.0,0.0,2.4492935982947064e-14,-200.0,0.0,0.0,0.0,0.0,200.0,3.141592653589793,0.0,0.0,0.0,0.0,0.0,0.0,0.0,0.0
28,2,Target,2.8000000000000003,6.858022075225206e-14,184640.0,0.0,2.4492935982947064e-14,-200.0,0.0,0.0,0.0,0.0,200.0,3.141592653589793,0.0,0.0,0.0,0.0,0.0,0.0,0.0,0.0
29,2,Target,2.9,7.102951435054682e-14,184620.0,0.0,2.4492935982947064e-14,-200.0,0.0,0.0,0.0,0.0,200.0,3.141592653589793,0.0,0.0,0.0,0.0,0.0,0.0,0.0,0.0
30,2,Target,3.0,7.347880794884158e-14,184600.0,0.0,2.4492935982947064e-14,-200.0,0.0,0.0,0.0,0.0,200.0,3.141592653589793,0.0,0.0,0.0,0.0,0.0,0.0,0.0,0.0
31,2,Target,3.1,7.592810154713635e-14,184580.0,0.0,2.4492935982947064e-14,-200.0,0.0,0.0,0.0,0.0,200.0,3.141592653589793,0.0,0.0,0.0,0.0,0.0,0.0,0.0,0.0
32,2,Target,3.2,7.837739514543111e-14,184560.0,0.0,2.4492935982947064e-14,-200.0,0.0,0.0,0.0,0.0,200.0,3.141592653589793,0.0,0.0,0.0,0.0,0.0,0.0,0.0,0.0
33,2,Target,3.3000000000000003,8.082668874372588e-14,184540.0,0.0,2.4492935982947064e-14,-200.0,0.0,0.0,0.0,0.0,200.0,3.141592653589793,0.0,0.0,0.0,0.0,0.0,0.0,0.0,0.0
34,2,Target,3.4,8.327598234202063e-14,184520.0,0.0,2.4492935982947064e-14,-200.0,0.0,0.0,0.0,0.0,200.0,3.141592653589793,0.0,0.0,0.0,0.0,0.0,0.0,0.0,0.0
35,2,Target,3.5,8.57252759403154e-14,184500.0,0.0,2.4492935982947064e-14,-200.0,0.0,0.0,0.0,0.0,200.0,3.141592653589793,0.0,0.0,0.0,0.0,0.0,0.0,0.0,0.0
36,2,Target,3.6,8.817456953861016e-14,184480.0,0.0,2.4492935982947064e-14,-200.0,0.0,0.0,0.0,0.0,200.0,3.141592653589793,0.0,0.0,0.0,0.0,0.0,0.0,0.0,0.0
37,2,Target,3.7,9.062386313690493e-14,184460.0,0.0,2.4492935982947064e-14,-200.0,0.0,0.0,0.0,0.0,200.0,3.141592653589793,0.0,0.0,0.0,0.0,0.0,0.0,0.0,0.0
38,2,Target,3.8000000000000003,9.30731567351997e-14,184440.0,0.0,2.4492935982947064e-14,-200.0,0.0,0.0,0.0,0.0,200.0,3.141592653589793,0.0,0.0,0.0,0.0,0.0,0.0,0.0,0.0
39,2,Target,3.9,9.552245033349445e-14,184420.0,0.0,2.4492935982947064e-14,-200.0,0.0,0.0,0.0,0.0,200.0,3.141592653589793,0.0,0.0,0.0,0.0,0.0,0.0,0.0,0.0
40,2,Target,4.0,9.797174393178922e-14,184400.0,0.0,2.4492935982947064e-14,-200.0,0.0,0.0,0.0,0.0,200.0,3.141592653589793,0.0,0.0,0.0,0.0,0.0,0.0,0.0,0.0
41,2,Target,4.1,1.0042103753008397e-13,184380.0,0.0,2.4492935982947064e-14,-200.0,0.0,0.0,0.0,0.0,200.0,3.141592653589793,0.0,0.0,0.0,0.0,0.0,0.0,0.0,0.0
42,2,Target,4.2,1.0287033112837875e-13,184360.0,0.0,2.4492935982947064e-14,-200.0,0.0,0.0,0.0,0.0,200.0,3.141592653589793,0.0,0.0,0.0,0.0,0.0,0.0,0.0,0.0
43,2,Target,4.3,1.053196247266735e-13,184340.0,0.0,2.4492935982947064e-14,-200.0,0.0,0.0,0.0,0.0,200.0,3.141592653589793,0.0,0.0,0.0,0.0,0.0,0.0,0.0,0.0
44,2,Target,4.4,1.0776891832496828e-13,184320.0,0.0,2.4492935982947064e-14,-200.0,0.0,0.0,0.0,0.0,200.0,3.141592653589793,0.0,0.0,0.0,0.0,0.0,0.0,0.0,0.0
45,2,Target,4.5,1.1021821192326303e-13,184300.0,0.0,2.4492935982947064e-14,-200.0,0.0,0.0,0.0,0.0,200.0,3.141592653589793,0.0,0.0,0.0,0.0,0.0,0.0,0.0,0.0
46,2,Target,4.6000000000000005,1.1266750552155781e-13,184280.0,0.0,2.4492935982947064e-14,-200.0,0.0,0.0,0.0,0.0,200.0,3.141592653589793,0.0,0.0,0.0,0.0,0.0,0.0,0.0,0.0
47,2,Target,4.7,1.1511679911985255e-13,184260.0,0.0,2.4492935982947064e-14,-200.0,0.0,0.0,0.0,0.0,200.0,3.141592653589793,0.0,0.0,0.0,0.0,0.0,0.0,0.0,0.0
48,2,Target,4.8,1.175660927181473e-13,184240.0,0.0,2.4492935982947064e-14,-200.0,0.0,0.0,0.0,0.0,200.0,3.141592653589793,0.0,0.0,0.0,0.0,0.0,0.0,0.0,0.0
49,2,Target,4.9,1.2001538631644209e-13,184220.0,0.0,2.4492935982947064e-14,-200.0,0.0,0.0,0.0,0.0,200.0,3.141592653589793,0.0,0.0,0.0,0.0,0.0,0.0,0.0,0.0
50,2,Target,5.0,1.2246467991473684e-13,184200.0,0.0,2.4492935982947064e-14,-200.0,0.0,0.0,0.0,0.0,200.0,3.141592653589793,0.0,0.0,0.0,0.0,0.0,0.0,0.0,0.0
51,2,Target,5.1000000000000005,1.2491397351303162e-13,184180.0,0.0,2.4492935982947064e-14,-200.0,0.0,0.0,0.0,0.0,200.0,3.141592653589793,0.0,0.0,0.0,0.0,0.0,0.0,0.0,0.0
52,2,Target,5.2,1.2736326711132637e-13,184160.0,0.0,2.4492935982947064e-14,-200.0,0.0,0.0,0.0,0.0,200.0,3.141592653589793,0.0,0.0,0.0,0.0,0.0,0.0,0.0,0.0
53,2,Target,5.3,1.2981256070962113e-13,184140.0,0.0,2.4492935982947064e-14,-200.0,0.0,0.0,0.0,0.0,200.0,3.141592653589793,0.0,0.0,0.0,0.0,0.0,0.0,0.0,0.0
54,2,Target,5.4,1.322618543079159e-13,184120.0,0.0,2.4492935982947064e-14,-200.0,0.0,0.0,0.0,0.0,200.0,3.141592653589793,0.0,0.0,0.0,0.0,0.0,0.0,0.0,0.0
55,2,Target,5.5,1.3471114790621066e-13,184100.0,0.0,2.4492935982947064e-14,-200.0,0.0,0.0,0.0,0.0,200.0,3.141592653589793,0.0,0.0,0.0,0.0,0.0,0.0,0.0,0.0
56,2,Target,5.6000000000000005,1.3716044150450544e-13,184080.0,0.0,2.4492935982947064e-14,-200.0,0.0,0.0,0.0,0.0,200.0,3.141592653589793,0.0,0.0,0.0,0.0,0.0,0.0,0.0,0.0
57,2,Target,5.7,1.396097351028002e-13,184060.0,0.0,2.4492935982947064e-14,-200.0,0.0,0.0,0.0,0.0,200.0,3.141592653589793,0.0,0.0,0.0,0.0,0.0,0.0,0.0,0.0
58,2,Target,5.8,1.4205902870109494e-13,184040.0,0.0,2.4492935982947064e-14,-200.0,0.0,0.0,0.0,0.0,200.0,3.141592653589793,0.0,0.0,0.0,0.0,0.0,0.0,0.0,0.0
59,2,Target,5.9,1.4450832229938972e-13,184020.0,0.0,2.4492935982947064e-14,-200.0,0.0,0.0,0.0,0.0,200.0,3.141592653589793,0.0,0.0,0.0,0.0,0.0,0.0,0.0,0.0
60,2,Target,6.0,1.4695761589768447e-13,184000.0,0.0,2.4492935982947064e-14,-200.0,0.0,0.0,0.0,0.0,200.0,3.141592653589793,0.0,0.0,0.0,0.0,0.0,0.0,0.0,0.0
61,2,Target,6.1000000000000005,1.4940690949597925e-13,183980.0,0.0,2.4492935982947064e-14,-200.0,0.0,0.0,0.0,0.0,200.0,3.141592653589793,0.0,0.0,0.0,0.0,0.0,0.0,0.0,0.0
62,2,Target,6.2,1.51856203094274e-13,183960.0,0.0,2.4492935982947064e-14,-200.0,0.0,0.0,0.0,0.0,200.0,3.141592653589793,0.0,0.0,0.0,0.0,0.0,0.0,0.0,0.0
63,2,Target,6.3,1.5430549669256876e-13,183940.0,0.0,2.4492935982947064e-14,-200.0,0.0,0.0,0.0,0.0,200.0,3.141592653589793,0.0,0.0,0.0,0.0,0.0,0.0,0.0,0.0
64,2,Target,6.4,1.5675479029086354e-13,183920.0,0.0,2.4492935982947064e-14,-200.0,0.0,0.0,0.0,0.0,200.0,3.141592653589793,0.0,0.0,0.0,0.0,0.0,0.0,0.0,0.0
65,2,Target,6.5,1.592040838891583e-13,183900.0,0.0,2.4492935982947064e-14,-200.0,0.0,0.0,0.0,0.0,200.0,3.141592653589793,0.0,0.0,0.0,0.0,0.0,0.0,0.0,0.0
66,2,Target,6.6000000000000005,1.6165337748745307e-13,183880.0,0.0,2.4492935982947064e-14,-200.0,0.0,0.0,0.0,0.0,200.0,3.141592653589793,0.0,0.0,0.0,0.0,0.0,0.0,0.0,0.0
67,2,Target,6.7,1.6410267108574782e-13,183860.0,0.0,2.4492935982947064e-14,-200.0,0.0,0.0,0.0,0.0,200.0,3.141592653589793,0.0,0.0,0.0,0.0,0.0,0.0,0.0,0.0
68,2,Target,6.8,1.6655196468404258e-13,183840.0,0.0,2.4492935982947064e-14,-200.0,0.0,0.0,0.0,0.0,200.0,3.141592653589793,0.0,0.0,0.0,0.0,0.0,0.0,0.0,0.0
69,2,Target,6.9,1.6900125828233736e-13,183820.0,0.0,2.4492935982947064e-14,-200.0,0.0,0.0,0.0,0.0,200.0,3.141592653589793,0.0,0.0,0.0,0.0,0.0,0.0,0.0,0.0
70,2,Target,7.0,1.714505518806321e-13,183800.0,0.0,2.4492935982947064e-14,-200.0,0.0,0.0,0.0,0.0,200.0,3.141592653589793,0.0,0.0,0.0,0.0,0.0,0.0,0.0,0.0
71,2,Target,7.1000000000000005,1.738998454789269e-13,183780.0,0.0,2.4492935982947064e-14,-200.0,0.0,0.0,0.0,0.0,200.0,3.141592653589793,0.0,0.0,0.0,0.0,0.0,0.0,0.0,0.0
72,2,Target,7.2,1.7634913907722164e-13,183760.0,0.0,2.4492935982947064e-14,-200.0,0.0,0.0,0.0,0.0,200.0,3.141592653589793,0.0,0.0,0.0,0.0,0.0,0.0,0.0,0.0
73,2,Target,7.3,1.787984326755164e-13,183740.0,0.0,2.4492935982947064e-14,-200.0,0.0,0.0,0.0,0.0,200.0,3.141592653589793,0.0,0.0,0.0,0.0,0.0,0.0,0.0,0.0
74,2,Target,7.4,1.8124772627381117e-13,183720.0,0.0,2.4492935982947064e-14,-200.0,0.0,0.0,0.0,0.0,200.0,3.141592653589793,0.0,0.0,0.0,0.0,0.0,0.0,0.0,0.0
75,2,Target,7.5,1.8369701987210593e-13,183700.0,0.0,2.4492935982947064e-14,-200.0,0.0,0.0,0.0,0.0,200.0,3.141592653589793,0.0,0.0,0.0,0.0,0.0,0.0,0.0,0.0
76,2,Target,7.6000000000000005,1.861463134704007e-13,183680.0,0.0,2.4492935982947064e-14,-200.0,0.0,0.0,0.0,0.0,200.0,3.141592653589793,0.0,0.0,0.0,0.0,0.0,0.0,0.0,0.0
77,2,Target,7.7,1.8859560706869546e-13,183660.0,0.0,2.4492935982947064e-14,-200.0,0.0,0.0,0.0,0.0,200.0,3.141592653589793,0.0,0.0,0.0,0.0,0.0,0.0,0.0,0.0
78,2,Target,7.8,1.9104490066699021e-13,183640.0,0.0,2.4492935982947064e-14,-200.0,0.0,0.0,0.0,0.0,200.0,3.141592653589793,0.0,0.0,0.0,0.0,0.0,0.0,0.0,0.0
79,2,Target,7.9,1.93494194265285e-13,183620.0,0.0,2.4492935982947064e-14,-200.0,0.0,0.0,0.0,0.0,200.0,3.141592653589793,0.0,0.0,0.0,0.0,0.0,0.0,0.0,0.0
80,2,Target,8.0,1.9594348786357975e-13,183600.0,0.0,2.4492935982947064e-14,-200.0,0.0,0.0,0.0,0.0,200.0,3.141592653589793,0.0,0.0,0.0,0.0,0.0,0.0,0.0,0.0
81,2,Target,8.1,1.983927814618745e-13,183580.0,0.0,2.4492935982947064e-14,-200.0,0.0,0.0,0.0,0.0,200.0,3.141592653589793,0.0,0.0,0.0,0.0,0.0,0.0,0.0,0.0
82,2,Target,8.2,2.0084207506016925e-13,183560.0,0.0,2.4492935982947064e-14,-200.0,0.0,0.0,0.0,0.0,200.0,3.141592653589793,0.0,0.0,0.0,0.0,0.0,0.0,0.0,0.0
83,2,Target,8.3,2.0329136865846406e-13,183540.0,0.0,2.4492935982947064e-14,-200.0,0.0,0.0,0.0,0.0,200.0,3.141592653589793,0.0,0.0,0.0,0.0,0.0,0.0,0.0,0.0
84,2,Target,8.4,2.057406622567588e-13,183520.0,0.0,2.4492935982947064e-14,-200.0,0.0,0.0,0.0,0.0,200.0,3.141592653589793,0.0,0.0,0.0,0.0,0.0,0.0,0.0,0.0
85,2,Target,8.5,2.0818995585505356e-13,183500.0,0.0,2.4492935982947064e-14,-200.0,0.0,0.0,0.0,0.0,200.0,3.141592653589793,0.0,0.0,0.0,0.0,0.0,0.0,0.0,0.0
86,2,Target,8.6,2.1063924945334832e-13,183480.0,0.0,2.4492935982947064e-14,-200.0,0.0,0.0,0.0,0.0,200.0,3.141592653589793,0.0,0.0,0.0,0.0,0.0,0.0,0.0,0.0
87,2,Target,8.700000000000001,2.1308854305164312e-13,183460.0,0.0,2.4492935982947064e-14,-200.0,0.0,0.0,0.0,0.0,200.0,3.141592653589793,0.0,0.0,0.0,0.0,0.0,0.0,0.0,0.0
88,2,Target,8.8,2.1553783664993787e-13,183440.0,0.0,2.4492935982947064e-14,-200.0,0.0,0.0,0.0,0.0,200.0,3.141592653589793,0.0,0.0,0.0,0.0,0.0,0.0,0.0,0.0
89,2,Target,8.9,2.1798713024823263e-13,183420.0,0.0,2.4492935982947064e-14,-200.0,0.0,0.0,0.0,0.0,200.0,3.141592653589793,0.0,0.0,0.0,0.0,0.0,0.0,0.0,0.0
90,2,Target,9.0,2.2043642384652738e-13,183400.0,0.0,2.4492935982947064e-14,-200.0,0.0,0.0,0.0,0.0,200.0,3.141592653589793,0.0,0.0,0.0,0.0,0.0,0.0,0.0,0.0
91,2,Target,9.1,2.2288571744482213e-13,183380.0,0.0,2.4492935982947064e-14,-200.0,0.0,0.0,0.0,0.0,200.0,3.141592653589793,0.0,0.0,0.0,0.0,0.0,0.0,0.0,0.0
92,2,Target,9.200000000000001,2.2533501104311694e-13,183360.0,0.0,2.4492935982947064e-14,-200.0,0.0,0.0,0.0,0.0,200.0,3.141592653589793,0.0,0.0,0.0,0.0,0.0,0.0,0.0,0.0
93,2,Target,9.3,2.2778430464141167e-13,183340.0,0.0,2.4492935982947064e-14,-200.0,0.0,0.0,0.0,0.0,200.0,3.141592653589793,0.0,0.0,0.0,0.0,0.0,0.0,0.0,0.0
94,2,Target,9.4,2.302335982397064e-13,183320.0,0.0,2.4492935982947064e-14,-200.0,0.0,0.0,0.0,0.0,200.0,3.141592653589793,0.0,0.0,0.0,0.0,0.0,0.0,0.0,0.0
95,2,Target,9.5,2.3268289183800117e-13,183300.0,0.0,2.4492935982947064e-14,-200.0,0.0,0.0,0.0,0.0,200.0,3.141592653589793,0.0,0.0,0.0,0.0,0.0,0.0,0.0,0.0
96,2,Target,9.6,2.3513218543629593e-13,183280.0,0.0,2.4492935982947064e-14,-200.0,0.0,0.0,0.0,0.0,200.0,3.141592653589793,0.0,0.0,0.0,0.0,0.0,0.0,0.0,0.0
97,2,Target,9.700000000000001,2.3758147903459073e-13,183260.0,0.0,2.4492935982947064e-14,-200.0,0.0,0.0,0.0,0.0,200.0,3.141592653589793,0.0,0.0,0.0,0.0,0.0,0.0,0.0,0.0
98,2,Target,9.8,2.400307726328855e-13,183240.0,0.0,2.4492935982947064e-14,-200.0,0.0,0.0,0.0,0.0,200.0,3.141592653589793,0.0,0.0,0.0,0.0,0.0,0.0,0.0,0.0
99,2,Target,9.9,2.4248006623118024e-13,183220.0,0.0,2.4492935982947064e-14,-200.0,0.0,0.0,0.0,0.0,200.0,3.141592653589793,0.0,0.0,0.0,0.0,0.0,0.0,0.0,0.0
100,2,Target,10.0,2.44929359829475e-13,183200.0,0.0,2.4492935982947064e-14,-200.0,0.0,0.0,0.0,0.0,200.0,3.141592653589793,0.0,0.0,0.0,0.0,0.0,0.0,0.0,0.0
101,2,Target,10.1,2.4737865342776975e-13,183180.0,0.0,2.4492935982947064e-14,-200.0,0.0,0.0,0.0,0.0,200.0,3.141592653589793,0.0,0.0,0.0,0.0,0.0,0.0,0.0,0.0
102,2,Target,10.200000000000001,2.4982794702606455e-13,183160.0,0.0,2.4492935982947064e-14,-200.0,0.0,0.0,0.0,0.0,200.0,3.141592653589793,0.0,0.0,0.0,0.0,0.0,0.0,0.0,0.0
103,2,Target,10.3,2.522772406243593e-13,183140.0,0.0,2.4492935982947064e-14,-200.0,0.0,0.0,0.0,0.0,200.0,3.141592653589793,0.0,0.0,0.0,0.0,0.0,0.0,0.0,0.0
104,2,Target,10.4,2.5472653422265406e-13,183120.0,0.0,2.4492935982947064e-14,-200.0,0.0,0.0,0.0,0.0,200.0,3.141592653589793,0.0,0.0,0.0,0.0,0.0,0.0,0.0,0.0
105,2,Target,10.5,2.571758278209488e-13,183100.0,0.0,2.4492935982947064e-14,-200.0,0.0,0.0,0.0,0.0,200.0,3.141592653589793,0.0,0.0,0.0,0.0,0.0,0.0,0.0,0.0
106,2,Target,10.6,2.5962512141924356e-13,183080.0,0.0,2.4492935982947064e-14,-200.0,0.0,0.0,0.0,0.0,200.0,3.141592653589793,0.0,0.0,0.0,0.0,0.0,0.0,0.0,0.0
107,2,Target,10.700000000000001,2.6207441501753837e-13,183060.0,0.0,2.4492935982947064e-14,-200.0,0.0,0.0,0.0,0.0,200.0,3.141592653589793,0.0,0.0,0.0,0.0,0.0,0.0,0.0,0.0
108,2,Target,10.8,2.645237086158331e-13,183040.0,0.0,2.4492935982947064e-14,-200.0,0.0,0.0,0.0,0.0,200.0,3.141592653589793,0.0,0.0,0.0,0.0,0.0,0.0,0.0,0.0
109,2,Target,10.9,2.6697300221412787e-13,183020.0,0.0,2.4492935982947064e-14,-200.0,0.0,0.0,0.0,0.0,200.0,3.141592653589793,0.0,0.0,0.0,0.0,0.0,0.0,0.0,0.0
110,2,Target,11.0,2.6942229581242263e-13,183000.0,0.0,2.4492935982947064e-14,-200.0,0.0,0.0,0.0,0.0,200.0,3.141592653589793,0.0,0.0,0.0,0.0,0.0,0.0,0.0,0.0
111,2,Target,11.1,2.718715894107174e-13,182980.0,0.0,2.4492935982947064e-14,-200.0,0.0,0.0,0.0,0.0,200.0,3.141592653589793,0.0,0.0,0.0,0.0,0.0,0.0,0.0,0.0
112,2,Target,11.200000000000001,2.743208830090122e-13,182960.0,0.0,2.4492935982947064e-14,-200.0,0.0,0.0,0.0,0.0,200.0,3.141592653589793,0.0,0.0,0.0,0.0,0.0,0.0,0.0,0.0
113,2,Target,11.3,2.7677017660730694e-13,182940.0,0.0,2.4492935982947064e-14,-200.0,0.0,0.0,0.0,0.0,200.0,3.141592653589793,0.0,0.0,0.0,0.0,0.0,0.0,0.0,0.0
114,2,Target,11.4,2.792194702056017e-13,182920.0,0.0,2.4492935982947064e-14,-200.0,0.0,0.0,0.0,0.0,200.0,3.141592653589793,0.0,0.0,0.0,0.0,0.0,0.0,0.0,0.0
115,2,Target,11.5,2.8166876380389644e-13,182900.0,0.0,2.4492935982947064e-14,-200.0,0.0,0.0,0.0,0.0,200.0,3.141592653589793,0.0,0.0,0.0,0.0,0.0,0.0,0.0,0.0
116,2,Target,11.6,2.841180574021912e-13,182880.0,0.0,2.4492935982947064e-14,-200.0,0.0,0.0,0.0,0.0,200.0,3.141592653589793,0.0,0.0,0.0,0.0,0.0,0.0,0.0,0.0
117,2,Target,11.700000000000001,2.86567351000486e-13,182860.0,0.0,2.4492935982947064e-14,-200.0,0.0,0.0,0.0,0.0,200.0,3.141592653589793,0.0,0.0,0.0,0.0,0.0,0.0,0.0,0.0
118,2,Target,11.8,2.8901664459878076e-13,182840.0,0.0,2.4492935982947064e-14,-200.0,0.0,0.0,0.0,0.0,200.0,3.141592653589793,0.0,0.0,0.0,0.0,0.0,0.0,0.0,0.0
119,2,Target,11.9,2.914659381970755e-13,182820.0,0.0,2.4492935982947064e-14,-200.0,0.0,0.0,0.0,0.0,200.0,3.141592653589793,0.0,0.0,0.0,0.0,0.0,0.0,0.0,0.0
120,2,Target,12.0,2.9391523179537026e-13,182800.0,0.0,2.4492935982947064e-14,-200.0,0.0,0.0,0.0,0.0,200.0,3.141592653589793,0.0,0.0,0.0,0.0,0.0,0.0,0.0,0.0
121,2,Target,12.1,2.96364525393665e-13,182780.0,0.0,2.4492935982947064e-14,-200.0,0.0,0.0,0.0,0.0,200.0,3.141592653589793,0.0,0.0,0.0,0.0,0.0,0.0,0.0,0.0
122,2,Target,12.200000000000001,2.988138189919598e-13,182760.0,0.0,2.4492935982947064e-14,-200.0,0.0,0.0,0.0,0.0,200.0,3.141592653589793,0.0,0.0,0.0,0.0,0.0,0.0,0.0,0.0
123,2,Target,12.3,3.0126311259025457e-13,182740.0,0.0,2.4492935982947064e-14,-200.0,0.0,0.0,0.0,0.0,200.0,3.141592653589793,0.0,0.0,0.0,0.0,0.0,0.0,0.0,0.0
124,2,Target,12.4,3.0371240618854933e-13,182720.0,0.0,2.4492935982947064e-14,-200.0,0.0,0.0,0.0,0.0,200.0,3.141592653589793,0.0,0.0,0.0,0.0,0.0,0.0,0.0,0.0
125,2,Target,12.5,3.061616997868441e-13,182700.0,0.0,2.4492935982947064e-14,-200.0,0.0,0.0,0.0,0.0,200.0,3.141592653589793,0.0,0.0,0.0,0.0,0.0,0.0,0.0,0.0
126,2,Target,12.6,3.0861099338513883e-13,182680.0,0.0,2.4492935982947064e-14,-200.0,0.0,0.0,0.0,0.0,200.0,3.141592653589793,0.0,0.0,0.0,0.0,0.0,0.0,0.0,0.0
127,2,Target,12.700000000000001,3.1106028698343364e-13,182660.0,0.0,2.4492935982947064e-14,-200.0,0.0,0.0,0.0,0.0,200.0,3.141592653589793,0.0,0.0,0.0,0.0,0.0,0.0,0.0,0.0
128,2,Target,12.8,3.135095805817284e-13,182640.0,0.0,2.4492935982947064e-14,-200.0,0.0,0.0,0.0,0.0,200.0,3.141592653589793,0.0,0.0,0.0,0.0,0.0,0.0,0.0,0.0
129,2,Target,12.9,3.1595887418002314e-13,182620.0,0.0,2.4492935982947064e-14,-200.0,0.0,0.0,0.0,0.0,200.0,3.141592653589793,0.0,0.0,0.0,0.0,0.0,0.0,0.0,0.0
130,2,Target,13.0,3.184081677783179e-13,182600.0,0.0,2.4492935982947064e-14,-200.0,0.0,0.0,0.0,0.0,200.0,3.141592653589793,0.0,0.0,0.0,0.0,0.0,0.0,0.0,0.0
131,2,Target,13.1,3.2085746137661265e-13,182580.0,0.0,2.4492935982947064e-14,-200.0,0.0,0.0,0.0,0.0,200.0,3.141592653589793,0.0,0.0,0.0,0.0,0.0,0.0,0.0,0.0
132,2,Target,13.200000000000001,3.2330675497490746e-13,182560.0,0.0,2.4492935982947064e-14,-200.0,0.0,0.0,0.0,0.0,200.0,3.141592653589793,0.0,0.0,0.0,0.0,0.0,0.0,0.0,0.0
133,2,Target,13.3,3.257560485732022e-13,182540.0,0.0,2.4492935982947064e-14,-200.0,0.0,0.0,0.0,0.0,200.0,3.141592653589793,0.0,0.0,0.0,0.0,0.0,0.0,0.0,0.0
134,2,Target,13.4,3.2820534217149696e-13,182520.0,0.0,2.4492935982947064e-14,-200.0,0.0,0.0,0.0,0.0,200.0,3.141592653589793,0.0,0.0,0.0,0.0,0.0,0.0,0.0,0.0
135,2,Target,13.5,3.306546357697917e-13,182500.0,0.0,2.4492935982947064e-14,-200.0,0.0,0.0,0.0,0.0,200.0,3.141592653589793,0.0,0.0,0.0,0.0,0.0,0.0,0.0,0.0
136,2,Target,13.6,3.3310392936808647e-13,182480.0,0.0,2.4492935982947064e-14,-200.0,0.0,0.0,0.0,0.0,200.0,3.141592653589793,0.0,0.0,0.0,0.0,0.0,0.0,0.0,0.0
137,2,Target,13.700000000000001,3.3555322296638127e-13,182460.0,0.0,2.4492935982947064e-14,-200.0,0.0,0.0,0.0,0.0,200.0,3.141592653589793,0.0,0.0,0.0,0.0,0.0,0.0,0.0,0.0
138,2,Target,13.8,3.3800251656467603e-13,182440.0,0.0,2.4492935982947064e-14,-200.0,0.0,0.0,0.0,0.0,200.0,3.141592653589793,0.0,0.0,0.0,0.0,0.0,0.0,0.0,0.0
139,2,Target,13.9,3.404518101629708e-13,182420.0,0.0,2.4492935982947064e-14,-200.0,0.0,0.0,0.0,0.0,200.0,3.141592653589793,0.0,0.0,0.0,0.0,0.0,0.0,0.0,0.0
140,2,Target,14.0,3.4290110376126553e-13,182400.0,0.0,2.4492935982947064e-14,-200.0,0.0,0.0,0.0,0.0,200.0,3.141592653589793,0.0,0.0,0.0,0.0,0.0,0.0,0.0,0.0
141,2,Target,14.1,3.453503973595603e-13,182380.0,0.0,2.4492935982947064e-14,-200.0,0.0,0.0,0.0,0.0,200.0,3.141592653589793,0.0,0.0,0.0,0.0,0.0,0.0,0.0,0.0
142,2,Target,14.200000000000001,3.477996909578551e-13,182360.0,0.0,2.4492935982947064e-14,-200.0,0.0,0.0,0.0,0.0,200.0,3.141592653589793,0.0,0.0,0.0,0.0,0.0,0.0,0.0,0.0
143,2,Target,14.3,3.5024898455614984e-13,182340.0,0.0,2.4492935982947064e-14,-200.0,0.0,0.0,0.0,0.0,200.0,3.141592653589793,0.0,0.0,0.0,0.0,0.0,0.0,0.0,0.0
144,2,Target,14.4,3.526982781544446e-13,182320.0,0.0,2.4492935982947064e-14,-200.0,0.0,0.0,0.0,0.0,200.0,3.141592653589793,0.0,0.0,0.0,0.0,0.0,0.0,0.0,0.0
145,2,Target,14.5,3.5514757175273935e-13,182300.0,0.0,2.4492935982947064e-14,-200.0,0.0,0.0,0.0,0.0,200.0,3.141592653589793,0.0,0.0,0.0,0.0,0.0,0.0,0.0,0.0
146,2,Target,14.6,3.575968653510341e-13,182280.0,0.0,2.4492935982947064e-14,-200.0,0.0,0.0,0.0,0.0,200.0,3.141592653589793,0.0,0.0,0.0,0.0,0.0,0.0,0.0,0.0
147,2,Target,14.700000000000001,3.600461589493289e-13,182260.0,0.0,2.4492935982947064e-14,-200.0,0.0,0.0,0.0,0.0,200.0,3.141592653589793,0.0,0.0,0.0,0.0,0.0,0.0,0.0,0.0
148,2,Target,14.8,3.6249545254762366e-13,182240.0,0.0,2.4492935982947064e-14,-200.0,0.0,0.0,0.0,0.0,200.0,3.141592653589793,0.0,0.0,0.0,0.0,0.0,0.0,0.0,0.0
149,2,Target,14.9,3.649447461459184e-13,182220.0,0.0,2.4492935982947064e-14,-200.0,0.0,0.0,0.0,0.0,200.0,3.141592653589793,0.0,0.0,0.0,0.0,0.0,0.0,0.0,0.0
150,2,Target,15.0,3.6739403974421317e-13,182200.0,0.0,2.4492935982947064e-14,-200.0,0.0,0.0,0.0,0.0,200.0,3.141592653589793,0.0,0.0,0.0,0.0,0.0,0.0,0.0,0.0
151,2,Target,15.1,3.698433333425079e-13,182180.0,0.0,2.4492935982947064e-14,-200.0,0.0,0.0,0.0,0.0,200.0,3.141592653589793,0.0,0.0,0.0,0.0,0.0,0.0,0.0,0.0
152,2,Target,15.200000000000001,3.7229262694080273e-13,182160.0,0.0,2.4492935982947064e-14,-200.0,0.0,0.0,0.0,0.0,200.0,3.141592653589793,0.0,0.0,0.0,0.0,0.0,0.0,0.0,0.0
153,2,Target,15.3,3.747419205390975e-13,182140.0,0.0,2.4492935982947064e-14,-200.0,0.0,0.0,0.0,0.0,200.0,3.141592653589793,0.0,0.0,0.0,0.0,0.0,0.0,0.0,0.0
154,2,Target,15.4,3.7719121413739223e-13,182120.0,0.0,2.4492935982947064e-14,-200.0,0.0,0.0,0.0,0.0,200.0,3.141592653589793,0.0,0.0,0.0,0.0,0.0,0.0,0.0,0.0
155,2,Target,15.5,3.79640507735687e-13,182100.0,0.0,2.4492935982947064e-14,-200.0,0.0,0.0,0.0,0.0,200.0,3.141592653589793,0.0,0.0,0.0,0.0,0.0,0.0,0.0,0.0
156,2,Target,15.6,3.8208980133398174e-13,182080.0,0.0,2.4492935982947064e-14,-200.0,0.0,0.0,0.0,0.0,200.0,3.141592653589793,0.0,0.0,0.0,0.0,0.0,0.0,0.0,0.0
157,2,Target,15.700000000000001,3.8453909493227654e-13,182060.0,0.0,2.4492935982947064e-14,-200.0,0.0,0.0,0.0,0.0,200.0,3.141592653589793,0.0,0.0,0.0,0.0,0.0,0.0,0.0,0.0
158,2,Target,15.8,3.869883885305713e-13,182040.0,0.0,2.4492935982947064e-14,-200.0,0.0,0.0,0.0,0.0,200.0,3.141592653589793,0.0,0.0,0.0,0.0,0.0,0.0,0.0,0.0
159,2,Target,15.9,3.8943768212886605e-13,182020.0,0.0,2.4492935982947064e-14,-200.0,0.0,0.0,0.0,0.0,200.0,3.141592653589793,0.0,0.0,0.0,0.0,0.0,0.0,0.0,0.0
160,2,Target,16.0,3.918869757271608e-13,182000.0,0.0,2.4492935982947064e-14,-200.0,0.0,0.0,0.0,0.0,200.0,3.141592653589793,0.0,0.0,0.0,0.0,0.0,0.0,0.0,0.0
161,2,Target,16.1,3.943362693254556e-13,181980.0,0.0,2.4492935982947064e-14,-200.0,0.0,0.0,0.0,0.0,200.0,3.141592653589793,0.0,0.0,0.0,0.0,0.0,0.0,0.0,0.0
162,2,Target,16.2,3.967855629237503e-13,181960.0,0.0,2.4492935982947064e-14,-200.0,0.0,0.0,0.0,0.0,200.0,3.141592653589793,0.0,0.0,0.0,0.0,0.0,0.0,0.0,0.0
163,2,Target,16.3,3.992348565220451e-13,181940.0,0.0,2.4492935982947064e-14,-200.0,0.0,0.0,0.0,0.0,200.0,3.141592653589793,0.0,0.0,0.0,0.0,0.0,0.0,0.0,0.0
164,2,Target,16.4,4.016841501203398e-13,181920.0,0.0,2.4492935982947064e-14,-200.0,0.0,0.0,0.0,0.0,200.0,3.141592653589793,0.0,0.0,0.0,0.0,0.0,0.0,0.0,0.0
165,2,Target,16.5,4.041334437186346e-13,181900.0,0.0,2.4492935982947064e-14,-200.0,0.0,0.0,0.0,0.0,200.0,3.141592653589793,0.0,0.0,0.0,0.0,0.0,0.0,0.0,0.0
166,2,Target,16.6,4.0658273731692943e-13,181880.0,0.0,2.4492935982947064e-14,-200.0,0.0,0.0,0.0,0.0,200.0,3.141592653589793,0.0,0.0,0.0,0.0,0.0,0.0,0.0,0.0
167,2,Target,16.7,4.0903203091522413e-13,181860.0,0.0,2.4492935982947064e-14,-200.0,0.0,0.0,0.0,0.0,200.0,3.141592653589793,0.0,0.0,0.0,0.0,0.0,0.0,0.0,0.0
168,2,Target,16.8,4.1148132451351893e-13,181840.0,0.0,2.4492935982947064e-14,-200.0,0.0,0.0,0.0,0.0,200.0,3.141592653589793,0.0,0.0,0.0,0.0,0.0,0.0,0.0,0.0
169,2,Target,16.9,4.1393061811181364e-13,181820.0,0.0,2.4492935982947064e-14,-200.0,0.0,0.0,0.0,0.0,200.0,3.141592653589793,0.0,0.0,0.0,0.0,0.0,0.0,0.0,0.0
170,2,Target,17.0,4.1637991171010844e-13,181800.0,0.0,2.4492935982947064e-14,-200.0,0.0,0.0,0.0,0.0,200.0,3.141592653589793,0.0,0.0,0.0,0.0,0.0,0.0,0.0,0.0
171,2,Target,17.1,4.1882920530840324e-13,181780.0,0.0,2.4492935982947064e-14,-200.0,0.0,0.0,0.0,0.0,200.0,3.141592653589793,0.0,0.0,0.0,0.0,0.0,0.0,0.0,0.0
172,2,Target,17.2,4.2127849890669795e-13,181760.0,0.0,2.4492935982947064e-14,-200.0,0.0,0.0,0.0,0.0,200.0,3.141592653589793,0.0,0.0,0.0,0.0,0.0,0.0,0.0,0.0
173,2,Target,17.3,4.2372779250499275e-13,181740.0,0.0,2.4492935982947064e-14,-200.0,0.0,0.0,0.0,0.0,200.0,3.141592653589793,0.0,0.0,0.0,0.0,0.0,0.0,0.0,0.0
174,2,Target,17.400000000000002,4.2617708610328755e-13,181720.0,0.0,2.4492935982947064e-14,-200.0,0.0,0.0,0.0,0.0,200.0,3.141592653589793,0.0,0.0,0.0,0.0,0.0,0.0,0.0,0.0
175,2,Target,17.5,4.2862637970158226e-13,181700.0,0.0,2.4492935982947064e-14,-200.0,0.0,0.0,0.0,0.0,200.0,3.141592653589793,0.0,0.0,0.0,0.0,0.0,0.0,0.0,0.0
176,2,Target,17.6,4.3107567329987706e-13,181680.0,0.0,2.4492935982947064e-14,-200.0,0.0,0.0,0.0,0.0,200.0,3.141592653589793,0.0,0.0,0.0,0.0,0.0,0.0,0.0,0.0
177,2,Target,17.7,4.3352496689817176e-13,181660.0,0.0,2.4492935982947064e-14,-200.0,0.0,0.0,0.0,0.0,200.0,3.141592653589793,0.0,0.0,0.0,0.0,0.0,0.0,0.0,0.0
178,2,Target,17.8,4.3597426049646657e-13,181640.0,0.0,2.4492935982947064e-14,-200.0,0.0,0.0,0.0,0.0,200.0,3.141592653589793,0.0,0.0,0.0,0.0,0.0,0.0,0.0,0.0
179,2,Target,17.900000000000002,4.3842355409476137e-13,181620.0,0.0,2.4492935982947064e-14,-200.0,0.0,0.0,0.0,0.0,200.0,3.141592653589793,0.0,0.0,0.0,0.0,0.0,0.0,0.0,0.0
180,2,Target,18.0,4.408728476930561e-13,181600.0,0.0,2.4492935982947064e-14,-200.0,0.0,0.0,0.0,0.0,200.0,3.141592653589793,0.0,0.0,0.0,0.0,0.0,0.0,0.0,0.0
181,2,Target,18.1,4.433221412913509e-13,181580.0,0.0,2.4492935982947064e-14,-200.0,0.0,0.0,0.0,0.0,200.0,3.141592653589793,0.0,0.0,0.0,0.0,0.0,0.0,0.0,0.0
182,2,Target,18.2,4.457714348896456e-13,181560.0,0.0,2.4492935982947064e-14,-200.0,0.0,0.0,0.0,0.0,200.0,3.141592653589793,0.0,0.0,0.0,0.0,0.0,0.0,0.0,0.0
183,2,Target,18.3,4.482207284879404e-13,181540.0,0.0,2.4492935982947064e-14,-200.0,0.0,0.0,0.0,0.0,200.0,3.141592653589793,0.0,0.0,0.0,0.0,0.0,0.0,0.0,0.0
184,2,Target,18.400000000000002,4.506700220862352e-13,181520.0,0.0,2.4492935982947064e-14,-200.0,0.0,0.0,0.0,0.0,200.0,3.141592653589793,0.0,0.0,0.0,0.0,0.0,0.0,0.0,0.0
185,2,Target,18.5,4.531193156845299e-13,181500.0,0.0,2.4492935982947064e-14,-200.0,0.0,0.0,0.0,0.0,200.0,3.141592653589793,0.0,0.0,0.0,0.0,0.0,0.0,0.0,0.0
186,2,Target,18.6,4.555686092828248e-13,181480.0,0.0,2.4492935982947064e-14,-200.0,0.0,0.0,0.0,0.0,200.0,3.141592653589793,0.0,0.0,0.0,0.0,0.0,0.0,0.0,0.0
187,2,Target,18.7,4.580179028811201e-13,181460.0,0.0,2.4492935982947064e-14,-200.0,0.0,0.0,0.0,0.0,200.0,3.141592653589793,0.0,0.0,0.0,0.0,0.0,0.0,0.0,0.0
188,2,Target,18.8,4.604671964794153e-13,181440.0,0.0,2.4492935982947064e-14,-200.0,0.0,0.0,0.0,0.0,200.0,3.141592653589793,0.0,0.0,0.0,0.0,0.0,0.0,0.0,0.0
189,2,Target,18.900000000000002,4.629164900777105e-13,181420.0,0.0,2.4492935982947064e-14,-200.0,0.0,0.0,0.0,0.0,200.0,3.141592653589793,0.0,0.0,0.0,0.0,0.0,0.0,0.0,0.0
190,2,Target,19.0,4.653657836760057e-13,181400.0,0.0,2.4492935982947064e-14,-200.0,0.0,0.0,0.0,0.0,200.0,3.141592653589793,0.0,0.0,0.0,0.0,0.0,0.0,0.0,0.0
191,2,Target,19.1,4.678150772743009e-13,181380.0,0.0,2.4492935982947064e-14,-200.0,0.0,0.0,0.0,0.0,200.0,3.141592653589793,0.0,0.0,0.0,0.0,0.0,0.0,0.0,0.0
192,2,Target,19.2,4.702643708725961e-13,181360.0,0.0,2.4492935982947064e-14,-200.0,0.0,0.0,0.0,0.0,200.0,3.141592653589793,0.0,0.0,0.0,0.0,0.0,0.0,0.0,0.0
193,2,Target,19.3,4.727136644708913e-13,181340.0,0.0,2.4492935982947064e-14,-200.0,0.0,0.0,0.0,0.0,200.0,3.141592653589793,0.0,0.0,0.0,0.0,0.0,0.0,0.0,0.0
194,2,Target,19.400000000000002,4.751629580691865e-13,181320.0,0.0,2.4492935982947064e-14,-200.0,0.0,0.0,0.0,0.0,200.0,3.141592653589793,0.0,0.0,0.0,0.0,0.0,0.0,0.0,0.0
195,2,Target,19.5,4.776122516674817e-13,181300.0,0.0,2.4492935982947064e-14,-200.0,0.0,0.0,0.0,0.0,200.0,3.141592653589793,0.0,0.0,0.0,0.0,0.0,0.0,0.0,0.0
196,2,Target,19.6,4.800615452657769e-13,181280.0,0.0,2.4492935982947064e-14,-200.0,0.0,0.0,0.0,0.0,200.0,3.141592653589793,0.0,0.0,0.0,0.0,0.0,0.0,0.0,0.0
197,2,Target,19.7,4.825108388640721e-13,181260.0,0.0,2.4492935982947064e-14,-200.0,0.0,0.0,0.0,0.0,200.0,3.141592653589793,0.0,0.0,0.0,0.0,0.0,0.0,0.0,0.0
198,2,Target,19.8,4.849601324623673e-13,181240.0,0.0,2.4492935982947064e-14,-200.0,0.0,0.0,0.0,0.0,200.0,3.141592653589793,0.0,0.0,0.0,0.0,0.0,0.0,0.0,0.0
199,2,Target,19.900000000000002,4.874094260606626e-13,181220.0,0.0,2.4492935982947064e-14,-200.0,0.0,0.0,0.0,0.0,200.0,3.141592653589793,0.0,0.0,0.0,0.0,0.0,0.0,0.0,0.0
200,2,Target,20.0,4.898587196589578e-13,181200.0,0.0,2.4492935982947064e-14,-200.0,0.0,0.0,0.0,0.0,200.0,3.141592653589793,0.0,0.0,0.0,0.0,0.0,0.0,0.0,0.0
201,2,Target,20.1,4.92308013257253e-13,181180.0,0.0,2.4492935982947064e-14,-200.0,0.0,0.0,0.0,0.0,200.0,3.141592653589793,0.0,0.0,0.0,0.0,0.0,0.0,0.0,0.0
202,2,Target,20.2,4.947573068555482e-13,181160.0,0.0,2.4492935982947064e-14,-200.0,0.0,0.0,0.0,0.0,200.0,3.141592653589793,0.0,0.0,0.0,0.0,0.0,0.0,0.0,0.0
203,2,Target,20.3,4.972066004538434e-13,181140.0,0.0,2.4492935982947064e-14,-200.0,0.0,0.0,0.0,0.0,200.0,3.141592653589793,0.0,0.0,0.0,0.0,0.0,0.0,0.0,0.0
204,2,Target,20.400000000000002,4.996558940521386e-13,181120.0,0.0,2.4492935982947064e-14,-200.0,0.0,0.0,0.0,0.0,200.0,3.141592653589793,0.0,0.0,0.0,0.0,0.0,0.0,0.0,0.0
205,2,Target,20.5,5.021051876504338e-13,181100.0,0.0,2.4492935982947064e-14,-200.0,0.0,0.0,0.0,0.0,200.0,3.141592653589793,0.0,0.0,0.0,0.0,0.0,0.0,0.0,0.0
206,2,Target,20.6,5.04554481248729e-13,181080.0,0.0,2.4492935982947064e-14,-200.0,0.0,0.0,0.0,0.0,200.0,3.141592653589793,0.0,0.0,0.0,0.0,0.0,0.0,0.0,0.0
207,2,Target,20.7,5.070037748470242e-13,181060.0,0.0,2.4492935982947064e-14,-200.0,0.0,0.0,0.0,0.0,200.0,3.141592653589793,0.0,0.0,0.0,0.0,0.0,0.0,0.0,0.0
208,2,Target,20.8,5.094530684453194e-13,181040.0,0.0,2.4492935982947064e-14,-200.0,0.0,0.0,0.0,0.0,200.0,3.141592653589793,0.0,0.0,0.0,0.0,0.0,0.0,0.0,0.0
209,2,Target,20.900000000000002,5.119023620436146e-13,181020.0,0.0,2.4492935982947064e-14,-200.0,0.0,0.0,0.0,0.0,200.0,3.141592653589793,0.0,0.0,0.0,0.0,0.0,0.0,0.0,0.0
210,2,Target,21.0,5.143516556419098e-13,181000.0,0.0,2.4492935982947064e-14,-200.0,0.0,0.0,0.0,0.0,200.0,3.141592653589793,0.0,0.0,0.0,0.0,0.0,0.0,0.0,0.0
211,2,Target,21.1,5.16800949240205e-13,180980.0,0.0,2.4492935982947064e-14,-200.0,0.0,0.0,0.0,0.0,200.0,3.141592653589793,0.0,0.0,0.0,0.0,0.0,0.0,0.0,0.0
212,2,Target,21.2,5.192502428385003e-13,180960.0,0.0,2.4492935982947064e-14,-200.0,0.0,0.0,0.0,0.0,200.0,3.141592653589793,0.0,0.0,0.0,0.0,0.0,0.0,0.0,0.0
213,2,Target,21.3,5.216995364367955e-13,180940.0,0.0,2.4492935982947064e-14,-200.0,0.0,0.0,0.0,0.0,200.0,3.141592653589793,0.0,0.0,0.0,0.0,0.0,0.0,0.0,0.0
214,2,Target,21.400000000000002,5.241488300350907e-13,180920.0,0.0,2.4492935982947064e-14,-200.0,0.0,0.0,0.0,0.0,200.0,3.141592653589793,0.0,0.0,0.0,0.0,0.0,0.0,0.0,0.0
215,2,Target,21.5,5.265981236333859e-13,180900.0,0.0,2.4492935982947064e-14,-200.0,0.0,0.0,0.0,0.0,200.0,3.141592653589793,0.0,0.0,0.0,0.0,0.0,0.0,0.0,0.0
216,2,Target,21.6,5.290474172316811e-13,180880.0,0.0,2.4492935982947064e-14,-200.0,0.0,0.0,0.0,0.0,200.0,3.141592653589793,0.0,0.0,0.0,0.0,0.0,0.0,0.0,0.0
217,2,Target,21.7,5.314967108299763e-13,180860.0,0.0,2.4492935982947064e-14,-200.0,0.0,0.0,0.0,0.0,200.0,3.141592653589793,0.0,0.0,0.0,0.0,0.0,0.0,0.0,0.0
218,2,Target,21.8,5.339460044282715e-13,180840.0,0.0,2.4492935982947064e-14,-200.0,0.0,0.0,0.0,0.0,200.0,3.141592653589793,0.0,0.0,0.0,0.0,0.0,0.0,0.0,0.0
219,2,Target,21.900000000000002,5.363952980265667e-13,180820.0,0.0,2.4492935982947064e-14,-200.0,0.0,0.0,0.0,0.0,200.0,3.141592653589793,0.0,0.0,0.0,0.0,0.0,0.0,0.0,0.0
220,2,Target,22.0,5.388445916248619e-13,180800.0,0.0,2.4492935982947064e-14,-200.0,0.0,0.0,0.0,0.0,200.0,3.141592653589793,0.0,0.0,0.0,0.0,0.0,0.0,0.0,0.0
221,2,Target,22.1,5.412938852231571e-13,180780.0,0.0,2.4492935982947064e-14,-200.0,0.0,0.0,0.0,0.0,200.0,3.141592653589793,0.0,0.0,0.0,0.0,0.0,0.0,0.0,0.0
222,2,Target,22.2,5.437431788214523e-13,180760.0,0.0,2.4492935982947064e-14,-200.0,0.0,0.0,0.0,0.0,200.0,3.141592653589793,0.0,0.0,0.0,0.0,0.0,0.0,0.0,0.0
223,2,Target,22.3,5.461924724197475e-13,180740.0,0.0,2.4492935982947064e-14,-200.0,0.0,0.0,0.0,0.0,200.0,3.141592653589793,0.0,0.0,0.0,0.0,0.0,0.0,0.0,0.0
224,2,Target,22.400000000000002,5.486417660180427e-13,180720.0,0.0,2.4492935982947064e-14,-200.0,0.0,0.0,0.0,0.0,200.0,3.141592653589793,0.0,0.0,0.0,0.0,0.0,0.0,0.0,0.0
225,2,Target,22.5,5.51091059616338e-13,180700.0,0.0,2.4492935982947064e-14,-200.0,0.0,0.0,0.0,0.0,200.0,3.141592653589793,0.0,0.0,0.0,0.0,0.0,0.0,0.0,0.0
226,2,Target,22.6,5.535403532146332e-13,180680.0,0.0,2.4492935982947064e-14,-200.0,0.0,0.0,0.0,0.0,200.0,3.141592653589793,0.0,0.0,0.0,0.0,0.0,0.0,0.0,0.0
227,2,Target,22.7,5.559896468129284e-13,180660.0,0.0,2.4492935982947064e-14,-200.0,0.0,0.0,0.0,0.0,200.0,3.141592653589793,0.0,0.0,0.0,0.0,0.0,0.0,0.0,0.0
228,2,Target,22.8,5.584389404112236e-13,180640.0,0.0,2.4492935982947064e-14,-200.0,0.0,0.0,0.0,0.0,200.0,3.141592653589793,0.0,0.0,0.0,0.0,0.0,0.0,0.0,0.0
229,2,Target,22.900000000000002,5.608882340095188e-13,180620.0,0.0,2.4492935982947064e-14,-200.0,0.0,0.0,0.0,0.0,200.0,3.141592653589793,0.0,0.0,0.0,0.0,0.0,0.0,0.0,0.0
230,2,Target,23.0,5.63337527607814e-13,180600.0,0.0,2.4492935982947064e-14,-200.0,0.0,0.0,0.0,0.0,200.0,3.141592653589793,0.0,0.0,0.0,0.0,0.0,0.0,0.0,0.0
231,2,Target,23.1,5.657868212061092e-13,180580.0,0.0,2.4492935982947064e-14,-200.0,0.0,0.0,0.0,0.0,200.0,3.141592653589793,0.0,0.0,0.0,0.0,0.0,0.0,0.0,0.0
232,2,Target,23.2,5.682361148044044e-13,180560.0,0.0,2.4492935982947064e-14,-200.0,0.0,0.0,0.0,0.0,200.0,3.141592653589793,0.0,0.0,0.0,0.0,0.0,0.0,0.0,0.0
233,2,Target,23.3,5.706854084026996e-13,180540.0,0.0,2.4492935982947064e-14,-200.0,0.0,0.0,0.0,0.0,200.0,3.141592653589793,0.0,0.0,0.0,0.0,0.0,0.0,0.0,0.0
234,2,Target,23.400000000000002,5.731347020009948e-13,180520.0,0.0,2.4492935982947064e-14,-200.0,0.0,0.0,0.0,0.0,200.0,3.141592653589793,0.0,0.0,0.0,0.0,0.0,0.0,0.0,0.0
235,2,Target,23.5,5.7558399559929e-13,180500.0,0.0,2.4492935982947064e-14,-200.0,0.0,0.0,0.0,0.0,200.0,3.141592653589793,0.0,0.0,0.0,0.0,0.0,0.0,0.0,0.0
236,2,Target,23.6,5.780332891975852e-13,180480.0,0.0,2.4492935982947064e-14,-200.0,0.0,0.0,0.0,0.0,200.0,3.141592653589793,0.0,0.0,0.0,0.0,0.0,0.0,0.0,0.0
237,2,Target,23.7,5.804825827958804e-13,180460.0,0.0,2.4492935982947064e-14,-200.0,0.0,0.0,0.0,0.0,200.0,3.141592653589793,0.0,0.0,0.0,0.0,0.0,0.0,0.0,0.0
238,2,Target,23.8,5.829318763941757e-13,180440.0,0.0,2.4492935982947064e-14,-200.0,0.0,0.0,0.0,0.0,200.0,3.141592653589793,0.0,0.0,0.0,0.0,0.0,0.0,0.0,0.0
239,2,Target,23.900000000000002,5.853811699924709e-13,180420.0,0.0,2.4492935982947064e-14,-200.0,0.0,0.0,0.0,0.0,200.0,3.141592653589793,0.0,0.0,0.0,0.0,0.0,0.0,0.0,0.0
240,2,Target,24.0,5.878304635907661e-13,180400.0,0.0,2.4492935982947064e-14,-200.0,0.0,0.0,0.0,0.0,200.0,3.141592653589793,0.0,0.0,0.0,0.0,0.0,0.0,0.0,0.0
241,2,Target,24.1,5.902797571890613e-13,180380.0,0.0,2.4492935982947064e-14,-200.0,0.0,0.0,0.0,0.0,200.0,3.141592653589793,0.0,0.0,0.0,0.0,0.0,0.0,0.0,0.0
242,2,Target,24.2,5.927290507873565e-13,180360.0,0.0,2.4492935982947064e-14,-200.0,0.0,0.0,0.0,0.0,200.0,3.141592653589793,0.0,0.0,0.0,0.0,0.0,0.0,0.0,0.0
243,2,Target,24.3,5.951783443856517e-13,180340.0,0.0,2.4492935982947064e-14,-200.0,0.0,0.0,0.0,0.0,200.0,3.141592653589793,0.0,0.0,0.0,0.0,0.0,0.0,0.0,0.0
244,2,Target,24.400000000000002,5.976276379839469e-13,180320.0,0.0,2.4492935982947064e-14,-200.0,0.0,0.0,0.0,0.0,200.0,3.141592653589793,0.0,0.0,0.0,0.0,0.0,0.0,0.0,0.0
245,2,Target,24.5,6.000769315822421e-13,180300.0,0.0,2.4492935982947064e-14,-200.0,0.0,0.0,0.0,0.0,200.0,3.141592653589793,0.0,0.0,0.0,0.0,0.0,0.0,0.0,0.0
246,2,Target,24.6,6.025262251805373e-13,180280.0,0.0,2.4492935982947064e-14,-200.0,0.0,0.0,0.0,0.0,200.0,3.141592653589793,0.0,0.0,0.0,0.0,0.0,0.0,0.0,0.0
247,2,Target,24.7,6.049755187788325e-13,180260.0,0.0,2.4492935982947064e-14,-200.0,0.0,0.0,0.0,0.0,200.0,3.141592653589793,0.0,0.0,0.0,0.0,0.0,0.0,0.0,0.0
248,2,Target,24.8,6.074248123771277e-13,180240.0,0.0,2.4492935982947064e-14,-200.0,0.0,0.0,0.0,0.0,200.0,3.141592653589793,0.0,0.0,0.0,0.0,0.0,0.0,0.0,0.0
249,2,Target,24.900000000000002,6.098741059754229e-13,180220.0,0.0,2.4492935982947064e-14,-200.0,0.0,0.0,0.0,0.0,200.0,3.141592653589793,0.0,0.0,0.0,0.0,0.0,0.0,0.0,0.0
250,2,Target,25.0,6.123233995737181e-13,180200.0,0.0,2.4492935982947064e-14,-200.0,0.0,0.0,0.0,0.0,200.0,3.141592653589793,0.0,0.0,0.0,0.0,0.0,0.0,0.0,0.0
251,2,Target,25.1,6.147726931720134e-13,180180.0,0.0,2.4492935982947064e-14,-200.0,0.0,0.0,0.0,0.0,200.0,3.141592653589793,0.0,0.0,0.0,0.0,0.0,0.0,0.0,0.0
252,2,Target,25.2,6.172219867703086e-13,180160.0,0.0,2.4492935982947064e-14,-200.0,0.0,0.0,0.0,0.0,200.0,3.141592653589793,0.0,0.0,0.0,0.0,0.0,0.0,0.0,0.0
253,2,Target,25.3,6.196712803686038e-13,180140.0,0.0,2.4492935982947064e-14,-200.0,0.0,0.0,0.0,0.0,200.0,3.141592653589793,0.0,0.0,0.0,0.0,0.0,0.0,0.0,0.0
254,2,Target,25.400000000000002,6.22120573966899e-13,180120.0,0.0,2.4492935982947064e-14,-200.0,0.0,0.0,0.0,0.0,200.0,3.141592653589793,0.0,0.0,0.0,0.0,0.0,0.0,0.0,0.0
255,2,Target,25.5,6.245698675651942e-13,180100.0,0.0,2.4492935982947064e-14,-200.0,0.0,0.0,0.0,0.0,200.0,3.141592653589793,0.0,0.0,0.0,0.0,0.0,0.0,0.0,0.0
256,2,Target,25.6,6.270191611634894e-13,180080.0,0.0,2.4492935982947064e-14,-200.0,0.0,0.0,0.0,0.0,200.0,3.141592653589793,0.0,0.0,0.0,0.0,0.0,0.0,0.0,0.0
257,2,Target,25.7,6.294684547617846e-13,180060.0,0.0,2.4492935982947064e-14,-200.0,0.0,0.0,0.0,0.0,200.0,3.141592653589793,0.0,0.0,0.0,0.0,0.0,0.0,0.0,0.0
258,2,Target,25.8,6.319177483600798e-13,180040.0,0.0,2.4492935982947064e-14,-200.0,0.0,0.0,0.0,0.0,200.0,3.141592653589793,0.0,0.0,0.0,0.0,0.0,0.0,0.0,0.0
259,2,Target,25.900000000000002,6.34367041958375e-13,180020.0,0.0,2.4492935982947064e-14,-200.0,0.0,0.0,0.0,0.0,200.0,3.141592653589793,0.0,0.0,0.0,0.0,0.0,0.0,0.0,0.0
260,2,Target,26.0,6.368163355566702e-13,180000.0,0.0,2.4492935982947064e-14,-200.0,0.0,0.0,0.0,0.0,200.0,3.141592653589793,0.0,0.0,0.0,0.0,0.0,0.0,0.0,0.0
261,2,Target,26.1,6.392656291549654e-13,179980.0,0.0,2.4492935982947064e-14,-200.0,0.0,0.0,0.0,0.0,200.0,3.141592653589793,0.0,0.0,0.0,0.0,0.0,0.0,0.0,0.0
262,2,Target,26.2,6.417149227532606e-13,179960.0,0.0,2.4492935982947064e-14,-200.0,0.0,0.0,0.0,0.0,200.0,3.141592653589793,0.0,0.0,0.0,0.0,0.0,0.0,0.0,0.0
263,2,Target,26.3,6.441642163515559e-13,179940.0,0.0,2.4492935982947064e-14,-200.0,0.0,0.0,0.0,0.0,200.0,3.141592653589793,0.0,0.0,0.0,0.0,0.0,0.0,0.0,0.0
264,2,Target,26.400000000000002,6.466135099498511e-13,179920.0,0.0,2.4492935982947064e-14,-200.0,0.0,0.0,0.0,0.0,200.0,3.141592653589793,0.0,0.0,0.0,0.0,0.0,0.0,0.0,0.0
265,2,Target,26.5,6.490628035481463e-13,179900.0,0.0,2.4492935982947064e-14,-200.0,0.0,0.0,0.0,0.0,200.0,3.141592653589793,0.0,0.0,0.0,0.0,0.0,0.0,0.0,0.0
266,2,Target,26.6,6.515120971464415e-13,179880.0,0.0,2.4492935982947064e-14,-200.0,0.0,0.0,0.0,0.0,200.0,3.141592653589793,0.0,0.0,0.0,0.0,0.0,0.0,0.0,0.0
267,2,Target,26.7,6.539613907447367e-13,179860.0,0.0,2.4492935982947064e-14,-200.0,0.0,0.0,0.0,0.0,200.0,3.141592653589793,0.0,0.0,0.0,0.0,0.0,0.0,0.0,0.0
268,2,Target,26.8,6.564106843430319e-13,179840.0,0.0,2.4492935982947064e-14,-200.0,0.0,0.0,0.0,0.0,200.0,3.141592653589793,0.0,0.0,0.0,0.0,0.0,0.0,0.0,0.0
269,2,Target,26.900000000000002,6.588599779413271e-13,179820.0,0.0,2.4492935982947064e-14,-200.0,0.0,0.0,0.0,0.0,200.0,3.141592653589793,0.0,0.0,0.0,0.0,0.0,0.0,0.0,0.0
270,2,Target,27.0,6.613092715396223e-13,179800.0,0.0,2.4492935982947064e-14,-200.0,0.0,0.0,0.0,0.0,200.0,3.141592653589793,0.0,0.0,0.0,0.0,0.0,0.0,0.0,0.0
271,2,Target,27.1,6.637585651379175e-13,179780.0,0.0,2.4492935982947064e-14,-200.0,0.0,0.0,0.0,0.0,200.0,3.141592653589793,0.0,0.0,0.0,0.0,0.0,0.0,0.0,0.0
272,2,Target,27.2,6.662078587362127e-13,179760.0,0.0,2.4492935982947064e-14,-200.0,0.0,0.0,0.0,0.0,200.0,3.141592653589793,0.0,0.0,0.0,0.0,0.0,0.0,0.0,0.0
273,2,Target,27.3,6.686571523345079e-13,179740.0,0.0,2.4492935982947064e-14,-200.0,0.0,0.0,0.0,0.0,200.0,3.141592653589793,0.0,0.0,0.0,0.0,0.0,0.0,0.0,0.0
274,2,Target,27.400000000000002,6.711064459328031e-13,179720.0,0.0,2.4492935982947064e-14,-200.0,0.0,0.0,0.0,0.0,200.0,3.141592653589793,0.0,0.0,0.0,0.0,0.0,0.0,0.0,0.0
275,2,Target,27.5,6.735557395310983e-13,179700.0,0.0,2.4492935982947064e-14,-200.0,0.0,0.0,0.0,0.0,200.0,3.141592653589793,0.0,0.0,0.0,0.0,0.0,0.0,0.0,0.0
276,2,Target,27.6,6.760050331293936e-13,179680.0,0.0,2.4492935982947064e-14,-200.0,0.0,0.0,0.0,0.0,200.0,3.141592653589793,0.0,0.0,0.0,0.0,0.0,0.0,0.0,0.0
277,2,Target,27.7,6.784543267276888e-13,179660.0,0.0,2.4492935982947064e-14,-200.0,0.0,0.0,0.0,0.0,200.0,3.141592653589793,0.0,0.0,0.0,0.0,0.0,0.0,0.0,0.0
278,2,Target,27.8,6.80903620325984e-13,179640.0,0.0,2.4492935982947064e-14,-200.0,0.0,0.0,0.0,0.0,200.0,3.141592653589793,0.0,0.0,0.0,0.0,0.0,0.0,0.0,0.0
279,2,Target,27.900000000000002,6.833529139242792e-13,179620.0,0.0,2.4492935982947064e-14,-200.0,0.0,0.0,0.0,0.0,200.0,3.141592653589793,0.0,0.0,0.0,0.0,0.0,0.0,0.0,0.0
280,2,Target,28.0,6.858022075225744e-13,179600.0,0.0,2.4492935982947064e-14,-200.0,0.0,0.0,0.0,0.0,200.0,3.141592653589793,0.0,0.0,0.0,0.0,0.0,0.0,0.0,0.0
281,2,Target,28.1,6.882515011208696e-13,179580.0,0.0,2.4492935982947064e-14,-200.0,0.0,0.0,0.0,0.0,200.0,3.141592653589793,0.0,0.0,0.0,0.0,0.0,0.0,0.0,0.0
282,2,Target,28.2,6.907007947191648e-13,179560.0,0.0,2.4492935982947064e-14,-200.0,0.0,0.0,0.0,0.0,200.0,3.141592653589793,0.0,0.0,0.0,0.0,0.0,0.0,0.0,0.0
283,2,Target,28.3,6.9315008831746e-13,179540.0,0.0,2.4492935982947064e-14,-200.0,0.0,0.0,0.0,0.0,200.0,3.141592653589793,0.0,0.0,0.0,0.0,0.0,0.0,0.0,0.0
284,2,Target,28.400000000000002,6.955993819157552e-13,179520.0,0.0,2.4492935982947064e-14,-200.0,0.0,0.0,0.0,0.0,200.0,3.141592653589793,0.0,0.0,0.0,0.0,0.0,0.0,0.0,0.0
285,2,Target,28.5,6.980486755140504e-13,179500.0,0.0,2.4492935982947064e-14,-200.0,0.0,0.0,0.0,0.0,200.0,3.141592653589793,0.0,0.0,0.0,0.0,0.0,0.0,0.0,0.0
286,2,Target,28.6,7.004979691123456e-13,179480.0,0.0,2.4492935982947064e-14,-200.0,0.0,0.0,0.0,0.0,200.0,3.141592653589793,0.0,0.0,0.0,0.0,0.0,0.0,0.0,0.0
287,2,Target,28.7,7.029472627106408e-13,179460.0,0.0,2.4492935982947064e-14,-200.0,0.0,0.0,0.0,0.0,200.0,3.141592653589793,0.0,0.0,0.0,0.0,0.0,0.0,0.0,0.0
288,2,Target,28.8,7.05396556308936e-13,179440.0,0.0,2.4492935982947064e-14,-200.0,0.0,0.0,0.0,0.0,200.0,3.141592653589793,0.0,0.0,0.0,0.0,0.0,0.0,0.0,0.0
289,2,Target,28.900000000000002,7.078458499072313e-13,179420.0,0.0,2.4492935982947064e-14,-200.0,0.0,0.0,0.0,0.0,200.0,3.141592653589793,0.0,0.0,0.0,0.0,0.0,0.0,0.0,0.0
290,2,Target,29.0,7.102951435055265e-13,179400.0,0.0,2.4492935982947064e-14,-200.0,0.0,0.0,0.0,0.0,200.0,3.141592653589793,0.0,0.0,0.0,0.0,0.0,0.0,0.0,0.0
291,2,Target,29.1,7.127444371038217e-13,179380.0,0.0,2.4492935982947064e-14,-200.0,0.0,0.0,0.0,0.0,200.0,3.141592653589793,0.0,0.0,0.0,0.0,0.0,0.0,0.0,0.0
292,2,Target,29.2,7.151937307021169e-13,179360.0,0.0,2.4492935982947064e-14,-200.0,0.0,0.0,0.0,0.0,200.0,3.141592653589793,0.0,0.0,0.0,0.0,0.0,0.0,0.0,0.0
293,2,Target,29.3,7.176430243004121e-13,179340.0,0.0,2.4492935982947064e-14,-200.0,0.0,0.0,0.0,0.0,200.0,3.141592653589793,0.0,0.0,0.0,0.0,0.0,0.0,0.0,0.0
294,2,Target,29.400000000000002,7.200923178987073e-13,179320.0,0.0,2.4492935982947064e-14,-200.0,0.0,0.0,0.0,0.0,200.0,3.141592653589793,0.0,0.0,0.0,0.0,0.0,0.0,0.0,0.0
295,2,Target,29.5,7.225416114970025e-13,179300.0,0.0,2.4492935982947064e-14,-200.0,0.0,0.0,0.0,0.0,200.0,3.141592653589793,0.0,0.0,0.0,0.0,0.0,0.0,0.0,0.0
296,2,Target,29.6,7.249909050952977e-13,179280.0,0.0,2.4492935982947064e-14,-200.0,0.0,0.0,0.0,0.0,200.0,3.141592653589793,0.0,0.0,0.0,0.0,0.0,0.0,0.0,0.0
297,2,Target,29.7,7.274401986935929e-13,179260.0,0.0,2.4492935982947064e-14,-200.0,0.0,0.0,0.0,0.0,200.0,3.141592653589793,0.0,0.0,0.0,0.0,0.0,0.0,0.0,0.0
298,2,Target,29.8,7.298894922918881e-13,179240.0,0.0,2.4492935982947064e-14,-200.0,0.0,0.0,0.0,0.0,200.0,3.141592653589793,0.0,0.0,0.0,0.0,0.0,0.0,0.0,0.0
299,2,Target,29.900000000000002,7.323387858901833e-13,179220.0,0.0,2.4492935982947064e-14,-200.0,0.0,0.0,0.0,0.0,200.0,3.141592653589793,0.0,0.0,0.0,0.0,0.0,0.0,0.0,0.0
300,2,Target,30.0,7.347880794884785e-13,179200.0,0.0,2.4492935982947064e-14,-200.0,0.0,0.0,0.0,0.0,200.0,3.141592653589793,0.0,0.0,0.0,0.0,0.0,0.0,0.0,0.0
301,2,Target,30.1,7.372373730867737e-13,179180.0,0.0,2.4492935982947064e-14,-200.0,0.0,0.0,0.0,0.0,200.0,3.141592653589793,0.0,0.0,0.0,0.0,0.0,0.0,0.0,0.0
302,2,Target,30.2,7.39686666685069e-13,179160.0,0.0,2.4492935982947064e-14,-200.0,0.0,0.0,0.0,0.0,200.0,3.141592653589793,0.0,0.0,0.0,0.0,0.0,0.0,0.0,0.0
303,2,Target,30.3,7.421359602833642e-13,179140.0,0.0,2.4492935982947064e-14,-200.0,0.0,0.0,0.0,0.0,200.0,3.141592653589793,0.0,0.0,0.0,0.0,0.0,0.0,0.0,0.0
304,2,Target,30.400000000000002,7.445852538816594e-13,179120.0,0.0,2.4492935982947064e-14,-200.0,0.0,0.0,0.0,0.0,200.0,3.141592653589793,0.0,0.0,0.0,0.0,0.0,0.0,0.0,0.0
305,2,Target,30.5,7.470345474799546e-13,179100.0,0.0,2.4492935982947064e-14,-200.0,0.0,0.0,0.0,0.0,200.0,3.141592653589793,0.0,0.0,0.0,0.0,0.0,0.0,0.0,0.0
306,2,Target,30.6,7.494838410782498e-13,179080.0,0.0,2.4492935982947064e-14,-200.0,0.0,0.0,0.0,0.0,200.0,3.141592653589793,0.0,0.0,0.0,0.0,0.0,0.0,0.0,0.0
307,2,Target,30.7,7.51933134676545e-13,179060.0,0.0,2.4492935982947064e-14,-200.0,0.0,0.0,0.0,0.0,200.0,3.141592653589793,0.0,0.0,0.0,0.0,0.0,0.0,0.0,0.0
308,2,Target,30.8,7.543824282748402e-13,179040.0,0.0,2.4492935982947064e-14,-200.0,0.0,0.0,0.0,0.0,200.0,3.141592653589793,0.0,0.0,0.0,0.0,0.0,0.0,0.0,0.0
309,2,Target,30.900000000000002,7.568317218731354e-13,179020.0,0.0,2.4492935982947064e-14,-200.0,0.0,0.0,0.0,0.0,200.0,3.141592653589793,0.0,0.0,0.0,0.0,0.0,0.0,0.0,0.0
310,2,Target,31.0,7.592810154714306e-13,179000.0,0.0,2.4492935982947064e-14,-200.0,0.0,0.0,0.0,0.0,200.0,3.141592653589793,0.0,0.0,0.0,0.0,0.0,0.0,0.0,0.0
311,2,Target,31.1,7.617303090697258e-13,178980.0,0.0,2.4492935982947064e-14,-200.0,0.0,0.0,0.0,0.0,200.0,3.141592653589793,0.0,0.0,0.0,0.0,0.0,0.0,0.0,0.0
312,2,Target,31.2,7.64179602668021e-13,178960.0,0.0,2.4492935982947064e-14,-200.0,0.0,0.0,0.0,0.0,200.0,3.141592653589793,0.0,0.0,0.0,0.0,0.0,0.0,0.0,0.0
313,2,Target,31.3,7.666288962663162e-13,178940.0,0.0,2.4492935982947064e-14,-200.0,0.0,0.0,0.0,0.0,200.0,3.141592653589793,0.0,0.0,0.0,0.0,0.0,0.0,0.0,0.0
314,2,Target,31.400000000000002,7.690781898646115e-13,178920.0,0.0,2.4492935982947064e-14,-200.0,0.0,0.0,0.0,0.0,200.0,3.141592653589793,0.0,0.0,0.0,0.0,0.0,0.0,0.0,0.0
315,2,Target,31.5,7.715274834629067e-13,178900.0,0.0,2.4492935982947064e-14,-200.0,0.0,0.0,0.0,0.0,200.0,3.141592653589793,0.0,0.0,0.0,0.0,0.0,0.0,0.0,0.0
316,2,Target,31.6,7.739767770612019e-13,178880.0,0.0,2.4492935982947064e-14,-200.0,0.0,0.0,0.0,0.0,200.0,3.141592653589793,0.0,0.0,0.0,0.0,0.0,0.0,0.0,0.0
317,2,Target,31.7,7.764260706594971e-13,178860.0,0.0,2.4492935982947064e-14,-200.0,0.0,0.0,0.0,0.0,200.0,3.141592653589793,0.0,0.0,0.0,0.0,0.0,0.0,0.0,0.0
318,2,Target,31.8,7.788753642577923e-13,178840.0,0.0,2.4492935982947064e-14,-200.0,0.0,0.0,0.0,0.0,200.0,3.141592653589793,0.0,0.0,0.0,0.0,0.0,0.0,0.0,0.0
319,2,Target,31.900000000000002,7.813246578560875e-13,178820.0,0.0,2.4492935982947064e-14,-200.0,0.0,0.0,0.0,0.0,200.0,3.141592653589793,0.0,0.0,0.0,0.0,0.0,0.0,0.0,0.0
320,2,Target,32.0,7.837739514543827e-13,178800.0,0.0,2.4492935982947064e-14,-200.0,0.0,0.0,0.0,0.0,200.0,3.141592653589793,0.0,0.0,0.0,0.0,0.0,0.0,0.0,0.0
321,2,Target,32.1,7.862232450526772e-13,178780.0,0.0,2.4492935982947064e-14,-200.0,0.0,0.0,0.0,0.0,200.0,3.141592653589793,0.0,0.0,0.0,0.0,0.0,0.0,0.0,0.0
322,2,Target,32.2,7.886725386509717e-13,178760.0,0.0,2.4492935982947064e-14,-200.0,0.0,0.0,0.0,0.0,200.0,3.141592653589793,0.0,0.0,0.0,0.0,0.0,0.0,0.0,0.0
323,2,Target,32.3,7.911218322492661e-13,178740.0,0.0,2.4492935982947064e-14,-200.0,0.0,0.0,0.0,0.0,200.0,3.141592653589793,0.0,0.0,0.0,0.0,0.0,0.0,0.0,0.0
324,2,Target,32.4,7.935711258475606e-13,178720.0,0.0,2.4492935982947064e-14,-200.0,0.0,0.0,0.0,0.0,200.0,3.141592653589793,0.0,0.0,0.0,0.0,0.0,0.0,0.0,0.0
325,2,Target,32.5,7.960204194458551e-13,178700.0,0.0,2.4492935982947064e-14,-200.0,0.0,0.0,0.0,0.0,200.0,3.141592653589793,0.0,0.0,0.0,0.0,0.0,0.0,0.0,0.0
326,2,Target,32.6,7.984697130441496e-13,178680.0,0.0,2.4492935982947064e-14,-200.0,0.0,0.0,0.0,0.0,200.0,3.141592653589793,0.0,0.0,0.0,0.0,0.0,0.0,0.0,0.0
327,2,Target,32.7,8.009190066424441e-13,178660.0,0.0,2.4492935982947064e-14,-200.0,0.0,0.0,0.0,0.0,200.0,3.141592653589793,0.0,0.0,0.0,0.0,0.0,0.0,0.0,0.0
328,2,Target,32.8,8.033683002407385e-13,178640.0,0.0,2.4492935982947064e-14,-200.0,0.0,0.0,0.0,0.0,200.0,3.141592653589793,0.0,0.0,0.0,0.0,0.0,0.0,0.0,0.0
329,2,Target,32.9,8.05817593839033e-13,178620.0,0.0,2.4492935982947064e-14,-200.0,0.0,0.0,0.0,0.0,200.0,3.141592653589793,0.0,0.0,0.0,0.0,0.0,0.0,0.0,0.0
330,2,Target,33.0,8.082668874373275e-13,178600.0,0.0,2.4492935982947064e-14,-200.0,0.0,0.0,0.0,0.0,200.0,3.141592653589793,0.0,0.0,0.0,0.0,0.0,0.0,0.0,0.0
331,2,Target,33.1,8.10716181035622e-13,178580.0,0.0,2.4492935982947064e-14,-200.0,0.0,0.0,0.0,0.0,200.0,3.141592653589793,0.0,0.0,0.0,0.0,0.0,0.0,0.0,0.0
332,2,Target,33.2,8.131654746339165e-13,178560.0,0.0,2.4492935982947064e-14,-200.0,0.0,0.0,0.0,0.0,200.0,3.141592653589793,0.0,0.0,0.0,0.0,0.0,0.0,0.0,0.0
333,2,Target,33.3,8.156147682322109e-13,178540.0,0.0,2.4492935982947064e-14,-200.0,0.0,0.0,0.0,0.0,200.0,3.141592653589793,0.0,0.0,0.0,0.0,0.0,0.0,0.0,0.0
334,2,Target,33.4,8.180640618305054e-13,178520.0,0.0,2.4492935982947064e-14,-200.0,0.0,0.0,0.0,0.0,200.0,3.141592653589793,0.0,0.0,0.0,0.0,0.0,0.0,0.0,0.0
335,2,Target,33.5,8.205133554287999e-13,178500.0,0.0,2.4492935982947064e-14,-200.0,0.0,0.0,0.0,0.0,200.0,3.141592653589793,0.0,0.0,0.0,0.0,0.0,0.0,0.0,0.0
336,2,Target,33.6,8.229626490270944e-13,178480.0,0.0,2.4492935982947064e-14,-200.0,0.0,0.0,0.0,0.0,200.0,3.141592653589793,0.0,0.0,0.0,0.0,0.0,0.0,0.0,0.0
337,2,Target,33.7,8.254119426253889e-13,178460.0,0.0,2.4492935982947064e-14,-200.0,0.0,0.0,0.0,0.0,200.0,3.141592653589793,0.0,0.0,0.0,0.0,0.0,0.0,0.0,0.0
338,2,Target,33.8,8.278612362236833e-13,178440.0,0.0,2.4492935982947064e-14,-200.0,0.0,0.0,0.0,0.0,200.0,3.141592653589793,0.0,0.0,0.0,0.0,0.0,0.0,0.0,0.0
339,2,Target,33.9,8.303105298219778e-13,178420.0,0.0,2.4492935982947064e-14,-200.0,0.0,0.0,0.0,0.0,200.0,3.141592653589793,0.0,0.0,0.0,0.0,0.0,0.0,0.0,0.0
340,2,Target,34.0,8.327598234202723e-13,178400.0,0.0,2.4492935982947064e-14,-200.0,0.0,0.0,0.0,0.0,200.0,3.141592653589793,0.0,0.0,0.0,0.0,0.0,0.0,0.0,0.0
341,2,Target,34.1,8.352091170185668e-13,178380.0,0.0,2.4492935982947064e-14,-200.0,0.0,0.0,0.0,0.0,200.0,3.141592653589793,0.0,0.0,0.0,0.0,0.0,0.0,0.0,0.0
342,2,Target,34.2,8.376584106168613e-13,178360.0,0.0,2.4492935982947064e-14,-200.0,0.0,0.0,0.0,0.0,200.0,3.141592653589793,0.0,0.0,0.0,0.0,0.0,0.0,0.0,0.0
343,2,Target,34.300000000000004,8.401077042151558e-13,178340.0,0.0,2.4492935982947064e-14,-200.0,0.0,0.0,0.0,0.0,200.0,3.141592653589793,0.0,0.0,0.0,0.0,0.0,0.0,0.0,0.0
344,2,Target,34.4,8.425569978134502e-13,178320.0,0.0,2.4492935982947064e-14,-200.0,0.0,0.0,0.0,0.0,200.0,3.141592653589793,0.0,0.0,0.0,0.0,0.0,0.0,0.0,0.0
345,2,Target,34.5,8.450062914117447e-13,178300.0,0.0,2.4492935982947064e-14,-200.0,0.0,0.0,0.0,0.0,200.0,3.141592653589793,0.0,0.0,0.0,0.0,0.0,0.0,0.0,0.0
346,2,Target,34.6,8.474555850100392e-13,178280.0,0.0,2.4492935982947064e-14,-200.0,0.0,0.0,0.0,0.0,200.0,3.141592653589793,0.0,0.0,0.0,0.0,0.0,0.0,0.0,0.0
347,2,Target,34.7,8.499048786083337e-13,178260.0,0.0,2.4492935982947064e-14,-200.0,0.0,0.0,0.0,0.0,200.0,3.141592653589793,0.0,0.0,0.0,0.0,0.0,0.0,0.0,0.0
348,2,Target,34.800000000000004,8.523541722066282e-13,178240.0,0.0,2.4492935982947064e-14,-200.0,0.0,0.0,0.0,0.0,200.0,3.141592653589793,0.0,0.0,0.0,0.0,0.0,0.0,0.0,0.0
349,2,Target,34.9,8.548034658049226e-13,178220.0,0.0,2.4492935982947064e-14,-200.0,0.0,0.0,0.0,0.0,200.0,3.141592653589793,0.0,0.0,0.0,0.0,0.0,0.0,0.0,0.0
350,2,Target,35.0,8.572527594032171e-13,178200.0,0.0,2.4492935982947064e-14,-200.0,0.0,0.0,0.0,0.0,200.0,3.141592653589793,0.0,0.0,0.0,0.0,0.0,0.0,0.0,0.0
351,2,Target,35.1,8.597020530015116e-13,178180.0,0.0,2.4492935982947064e-14,-200.0,0.0,0.0,0.0,0.0,200.0,3.141592653589793,0.0,0.0,0.0,0.0,0.0,0.0,0.0,0.0
352,2,Target,35.2,8.621513465998061e-13,178160.0,0.0,2.4492935982947064e-14,-200.0,0.0,0.0,0.0,0.0,200.0,3.141592653589793,0.0,0.0,0.0,0.0,0.0,0.0,0.0,0.0
353,2,Target,35.300000000000004,8.646006401981006e-13,178140.0,0.0,2.4492935982947064e-14,-200.0,0.0,0.0,0.0,0.0,200.0,3.141592653589793,0.0,0.0,0.0,0.0,0.0,0.0,0.0,0.0
354,2,Target,35.4,8.67049933796395e-13,178120.0,0.0,2.4492935982947064e-14,-200.0,0.0,0.0,0.0,0.0,200.0,3.141592653589793,0.0,0.0,0.0,0.0,0.0,0.0,0.0,0.0
355,2,Target,35.5,8.694992273946895e-13,178100.0,0.0,2.4492935982947064e-14,-200.0,0.0,0.0,0.0,0.0,200.0,3.141592653589793,0.0,0.0,0.0,0.0,0.0,0.0,0.0,0.0
356,2,Target,35.6,8.71948520992984e-13,178080.0,0.0,2.4492935982947064e-14,-200.0,0.0,0.0,0.0,0.0,200.0,3.141592653589793,0.0,0.0,0.0,0.0,0.0,0.0,0.0,0.0
357,2,Target,35.7,8.743978145912785e-13,178060.0,0.0,2.4492935982947064e-14,-200.0,0.0,0.0,0.0,0.0,200.0,3.141592653589793,0.0,0.0,0.0,0.0,0.0,0.0,0.0,0.0
358,2,Target,35.800000000000004,8.76847108189573e-13,178040.0,0.0,2.4492935982947064e-14,-200.0,0.0,0.0,0.0,0.0,200.0,3.141592653589793,0.0,0.0,0.0,0.0,0.0,0.0,0.0,0.0
359,2,Target,35.9,8.792964017878674e-13,178020.0,0.0,2.4492935982947064e-14,-200.0,0.0,0.0,0.0,0.0,200.0,3.141592653589793,0.0,0.0,0.0,0.0,0.0,0.0,0.0,0.0
360,2,Target,36.0,8.817456953861619e-13,178000.0,0.0,2.4492935982947064e-14,-200.0,0.0,0.0,0.0,0.0,200.0,3.141592653589793,0.0,0.0,0.0,0.0,0.0,0.0,0.0,0.0
361,2,Target,36.1,8.841949889844564e-13,177980.0,0.0,2.4492935982947064e-14,-200.0,0.0,0.0,0.0,0.0,200.0,3.141592653589793,0.0,0.0,0.0,0.0,0.0,0.0,0.0,0.0
362,2,Target,36.2,8.866442825827509e-13,177960.0,0.0,2.4492935982947064e-14,-200.0,0.0,0.0,0.0,0.0,200.0,3.141592653589793,0.0,0.0,0.0,0.0,0.0,0.0,0.0,0.0
363,2,Target,36.300000000000004,8.890935761810454e-13,177940.0,0.0,2.4492935982947064e-14,-200.0,0.0,0.0,0.0,0.0,200.0,3.141592653589793,0.0,0.0,0.0,0.0,0.0,0.0,0.0,0.0
364,2,Target,36.4,8.915428697793398e-13,177920.0,0.0,2.4492935982947064e-14,-200.0,0.0,0.0,0.0,0.0,200.0,3.141592653589793,0.0,0.0,0.0,0.0,0.0,0.0,0.0,0.0
365,2,Target,36.5,8.939921633776343e-13,177900.0,0.0,2.4492935982947064e-14,-200.0,0.0,0.0,0.0,0.0,200.0,3.141592653589793,0.0,0.0,0.0,0.0,0.0,0.0,0.0,0.0
366,2,Target,36.6,8.964414569759288e-13,177880.0,0.0,2.4492935982947064e-14,-200.0,0.0,0.0,0.0,0.0,200.0,3.141592653589793,0.0,0.0,0.0,0.0,0.0,0.0,0.0,0.0
367,2,Target,36.7,8.988907505742233e-13,177860.0,0.0,2.4492935982947064e-14,-200.0,0.0,0.0,0.0,0.0,200.0,3.141592653589793,0.0,0.0,0.0,0.0,0.0,0.0,0.0,0.0
368,2,Target,36.800000000000004,9.013400441725178e-13,177840.0,0.0,2.4492935982947064e-14,-200.0,0.0,0.0,0.0,0.0,200.0,3.141592653589793,0.0,0.0,0.0,0.0,0.0,0.0,0.0,0.0
369,2,Target,36.9,9.037893377708122e-13,177820.0,0.0,2.4492935982947064e-14,-200.0,0.0,0.0,0.0,0.0,200.0,3.141592653589793,0.0,0.0,0.0,0.0,0.0,0.0,0.0,0.0
370,2,Target,37.0,9.062386313691067e-13,177800.0,0.0,2.4492935982947064e-14,-200.0,0.0,0.0,0.0,0.0,200.0,3.141592653589793,0.0,0.0,0.0,0.0,0.0,0.0,0.0,0.0
371,2,Target,37.1,9.086879249674012e-13,177780.0,0.0,2.4492935982947064e-14,-200.0,0.0,0.0,0.0,0.0,200.0,3.141592653589793,0.0,0.0,0.0,0.0,0.0,0.0,0.0,0.0
372,2,Target,37.2,9.111372185656953e-13,177760.0,0.0,2.4492935982947064e-14,-200.0,0.0,0.0,0.0,0.0,200.0,3.141592653589793,0.0,0.0,0.0,0.0,0.0,0.0,0.0,0.0
373,2,Target,37.300000000000004,9.135865121639891e-13,177740.0,0.0,2.4492935982947064e-14,-200.0,0.0,0.0,0.0,0.0,200.0,3.141592653589793,0.0,0.0,0.0,0.0,0.0,0.0,0.0,0.0
374,2,Target,37.4,9.160358057622827e-13,177720.0,0.0,2.4492935982947064e-14,-200.0,0.0,0.0,0.0,0.0,200.0,3.141592653589793,0.0,0.0,0.0,0.0,0.0,0.0,0.0,0.0
375,2,Target,37.5,9.184850993605765e-13,177700.0,0.0,2.4492935982947064e-14,-200.0,0.0,0.0,0.0,0.0,200.0,3.141592653589793,0.0,0.0,0.0,0.0,0.0,0.0,0.0,0.0
376,2,Target,37.6,9.209343929588703e-13,177680.0,0.0,2.4492935982947064e-14,-200.0,0.0,0.0,0.0,0.0,200.0,3.141592653589793,0.0,0.0,0.0,0.0,0.0,0.0,0.0,0.0
377,2,Target,37.7,9.233836865571641e-13,177660.0,0.0,2.4492935982947064e-14,-200.0,0.0,0.0,0.0,0.0,200.0,3.141592653589793,0.0,0.0,0.0,0.0,0.0,0.0,0.0,0.0
378,2,Target,37.800000000000004,9.25832980155458e-13,177640.0,0.0,2.4492935982947064e-14,-200.0,0.0,0.0,0.0,0.0,200.0,3.141592653589793,0.0,0.0,0.0,0.0,0.0,0.0,0.0,0.0
379,2,Target,37.9,9.282822737537515e-13,177620.0,0.0,2.4492935982947064e-14,-200.0,0.0,0.0,0.0,0.0,200.0,3.141592653589793,0.0,0.0,0.0,0.0,0.0,0.0,0.0,0.0
