,id,name,time,east,north,up,east_vel,north_vel,up_vel,east_accel,north_accel,up_accel,speed,yaw,pitch,roll,yaw_rate,pitch_rate,roll_rate,axial_accel,lateral_accel,vertical_accel
0,1,Target,0.0,0.0,185200.0,0.0,2.4492935982947064e-14,-200.0,0.0,0.0,0.0,0.0,200.0,3.141592653589793,0.0,0.0,0.0,0.0,0.0,0.0,0.0,0.0
1,1,Target,1.0,2.449293598294702e-14,185000.0,0.0,2.4492935982947064e-14,-200.0,0.0,0.0,0.0,0.0,200.0,3.141592653589793,0.0,0.0,0.0,0.0,0.0,0.0,0.0,0.0
2,1,Target,2.0,4.8985871965894047e-14,184800.0,0.0,2.4492935982947064e-14,-200.0,0.0,0.0,0.0,0.0,200.0,3.141592653589793,0.0,0.0,0.0,0.0,0.0,0.0,0.0,0.0
3,1,Target,3.0,7.347880794884158e-14,184600.0,0.0,2.4492935982947064e-14,-200.0,0.0,0.0,0.0,0.0,200.0,3.141592653589793,0.0,0.0,0.0,0.0,0.0,0.0,0.0,0.0
4,1,Target,4.0,9.797174393178922e-14,184400.0,0.0,2.4492935982947064e-14,-200.0,0.0,0.0,0.0,0.0,200.0,3.141592653589793,0.0,0.0,0.0,0.0,0.0,0.0,0.0,0.0
5,1,Target,5.0,1.2246467991473684e-13,184200.0,0.0,2.4492935982947064e-14,-200.0,0.0,0.0,0.0,0.0,200.0,3.141592653589793,0.0,0.0,0.0,0.0,0.0,0.0,0.0,0.0
6,1,Target,6.0,1.4695761589768447e-13,184000.0,0.0,2.4492935982947064e-14,-200.0,0.0,0.0,0.0,0.0,200.0,3.141592653589793,0.0,0.0,0.0,0.0,0.0,0.0,0.0,0.0
7,1,Target,7.0,1.714505518806321e-13,183800.0,0.0,2.4492935982947064e-14,-200.0,0.0,0.0,0.0,0.0,200.0,3.141592653589793,0.0,0.0,0.0,0.0,0.0,0.0,0.0,0.0
8,1,Target,8.0,1.9594348786357975e-13,183600.0,0.0,2.4492935982947064e-14,-200.0,0.0,0.0,0.0,0.0,200.0,3.141592653589793,0.0,0.0,0.0,0.0,0.0,0.0,0.0,0.0
9,1,Target,9.0,2.2043642384652738e-13,183400.0,0.0,2.4492935982947064e-14,-200.0,0.0,0.0,0.0,0.0,200.0,3.141592653589793,0.0,0.0,0.0,0.0,0.0,0.0,0.0,0.0
10,1,Target,10.0,2.44929359829475e-13,183200.0,0.0,2.4492935982947064e-14,-200.0,0.0,0.0,0.0,0.0,200.0,3.141592653589793,0.0,0.0,0.0,0.0,0.0,0.0,0.0,0.0
11,1,Target,11.0,2.6942229581242263e-13,183000.0,0.0,2.4492935982947064e-14,-200.0,0.0,0.0,0.0,0.0,200.0,3.141592653589793,0.0,0.0,0.0,0.0,0.0,0.0,0.0,0.0
12,1,Target,12.0,2.9391523179537026e-13,182800.0,0.0,2.4492935982947064e-14,-200.0,0.0,0.0,0.0,0.0,200.0,3.141592653589793,0.0,0.0,0.0,0.0,0.0,0.0,0.0,0.0
13,1,Target,13.0,3.184081677783179e-13,182600.0,0.0,2.4492935982947064e-14,-200.0,0.0,0.0,0.0,0.0,200.0,3.141592653589793,0.0,0.0,0.0,0.0,0.0,0.0,0.0,0.0
14,1,Target,14.0,3.4290110376126553e-13,182400.0,0.0,2.4492935982947064e-14,-200.0,0.0,0.0,0.0,0.0,200.0,3.141592653589793,0.0,0.0,0.0,0.0,0.0,0.0,0.0,0.0
15,1,Target,15.0,3.6739403974421317e-13,182200.0,0.0,2.4492935982947064e-14,-200.0,0.0,0.0,0.0,0.0,200.0,3.141592653589793,0.0,0.0,0.0,0.0,0.0,0.0,0.0,0.0
16,1,Target,16.0,3.918869757271608e-13,182000.0,0.0,2.4492935982947064e-14,-200.0,0.0,0.0,0.0,0.0,200.0,3.141592653589793,0.0,0.0,0.0,0.0,0.0,0.0,0.0,0.0
17,1,Target,17.0,4.1637991171010844e-13,181800.0,0.0,2.4492935982947064e-14,-200.0,0.0,0.0,0.0,0.0,200.0,3.141592653589793,0.0,0.0,0.0,0.0,0.0,0.0,0.0,0.0
18,1,Target,18.0,4.408728476930561e-13,181600.0,0.0,2.4492935982947064e-14,-200.0,0.0,0.0,0.0,0.0,200.0,3.141592653589793,0.0,0.0,0.0,0.0,0.0,0.0,0.0,0.0
19,1,Target,19.0,4.653657836760057e-13,181400.0,0.0,2.4492935982947064e-14,-200.0,0.0,0.0,0.0,0.0,200.0,3.141592653589793,0.0,0.0,0.0,0.0,0.0,0.0,0.0,0.0
20,1,Target,20.0,4.898587196589578e-13,181200.0,0.0,2.4492935982947064e-14,-200.0,0.0,0.0,0.0,0.0,200.0,3.141592653589793,0.0,0.0,0.0,0.0,0.0,0.0,0.0,0.0
21,1,Target,21.0,5.143516556419098e-13,181000.0,0.0,2.4492935982947064e-14,-200.0,0.0,0.0,0.0,0.0,200.0,3.141592653589793,0.0,0.0,0.0,0.0,0.0,0.0,0.0,0.0
22,1,Target,22.0,5.388445916248619e-13,180800.0,0.0,2.4492935982947064e-14,-200.0,0.0,0.0,0.0,0.0,200.0,3.141592653589793,0.0,0.0,0.0,0.0,0.0,0.0,0.0,0.0
23,1,Target,23.0,5.63337527607814e-13,180600.0,0.0,2.4492935982947064e-14,-200.0,0.0,0.0,0.0,0.0,200.0,3.141592653589793,0.0,0.0,0.0,0.0,0.0,0.0,0.0,0.0
24,1,Target,24.0,5.878304635907661e-13,180400.0,0.0,2.4492935982947064e-14,-200.0,0.0,0.0,0.0,0.0,200.0,3.141592653589793,0.0,0.0,0.0,0.0,0.0,0.0,0.0,0.0
25,1,Target,25.0,6.123233995737181e-13,180200.0,0.0,2.4492935982947064e-14,-200.0,0.0,0.0,0.0,0.0,200.0,3.141592653589793,0.0,0.0,0.0,0.0,0.0,0.0,0.0,0.0
26,1,Target,26.0,6.368163355566702e-13,180000.0,0.0,2.4492935982947064e-14,-200.0,0.0,0.0,0.0,0.0,200.0,3.141592653589793,0.0,0.0,0.0,0.0,0.0,0.0,0.0,0.0
27,1,Target,27.0,6.613092715396223e-13,179800.0,0.0,2.4492935982947064e-14,-200.0,0.0,0.0,0.0,0.0,200.0,3.141592653589793,0.0,0.0,0.0,0.0,0.0,0.0,0.0,0.0
28,1,Target,28.0,6.858022075225744e-13,179600.0,0.0,2.4492935982947064e-14,-200.0,0.0,0.0,0.0,0.0,200.0,3.141592653589793,0.0,0.0,0.0,0.0,0.0,0.0,0.0,0.0
29,1,Target,29.0,7.102951435055265e-13,179400.0,0.0,2.4492935982947064e-14,-200.0,0.0,0.0,0.0,0.0,200.0,3.141592653589793,0.0,0.0,0.0,0.0,0.0,0.0,0.0,0.0
30,1,Target,30.0,7.347880794884785e-13,179200.0,0.0,2.4492935982947064e-14,-200.0,0.0,0.0,0.0,0.0,200.0,3.141592653589793,0.0,0.0,0.0,0.0,0.0,0.0,0.0,0.0
31,1,Target,31.0,7.592810154714306e-13,179000.0,0.0,2.4492935982947064e-14,-200.0,0.0,0.0,0.0,0.0,200.0,3.141592653589793,0.0,0.0,0.0,0.0,0.0,0.0,0.0,0.0
32,1,Target,32.0,7.837739514543827e-13,178800.0,0.0,2.4492935982947064e-14,-200.0,0.0,0.0,0.0,0.0,200.0,3.141592653589793,0.0,0.0,0.0,0.0,0.0,0.0,0.0,0.0
33,1,Target,33.0,8.082668874373275e-13,178600.0,0.0,2.4492935982947064e-14,-200.0,0.0,0.0,0.0,0.0,200.0,3.141592653589793,0.0,0.0,0.0,0.0,0.0,0.0,0.0,0.0
34,1,Target,34.0,8.327598234202723e-13,178400.0,0.0,2.4492935982947064e-14,-200.0,0.0,0.0,0.0,0.0,200.0,3.141592653589793,0.0,0.0,0.0,0.0,0.0,0.0,0.0,0.0
35,1,Target,35.0,8.572527594032171e-13,178200.0,0.0,2.4492935982947064e-14,-200.0,0.0,0.0,0.0,0.0,200.0,3.141592653589793,0.0,0.0,0.0,0.0,0.0,0.0,0.0,0.0
36,1,Target,36.0,8.817456953861619e-13,178000.0,0.0,2.4492935982947064e-14,-200.0,0.0,0.0,0.0,0.0,200.0,3.141592653589793,0.0,0.0,0.0,0.0,0.0,0.0,0.0,0.0
37,1,Target,37.0,9.062386313691067e-13,177800.0,0.0,2.4492935982947064e-14,-200.0,0.0,0.0,0.0,0.0,200.0,3.141592653589793,0.0,0.0,0.0,0.0,0.0,0.0,0.0,0.0
38,1,Target,38.0,9.307315673520453e-13,177600.0,0.0,2.4492935982947064e-14,-200.0,0.0,0.0,0.0,0.0,200.0,3.141592653589793,0.0,0.0,0.0,0.0,0.0,0.0,0.0,0.0
39,1,Target,39.0,9.552245033349828e-13,177400.0,0.0,2.4492935982947064e-14,-200.0,0.0,0.0,0.0,0.0,200.0,3.141592653589793,0.0,0.0,0.0,0.0,0.0,0.0,0.0,0.0
40,1,Target,40.0,9.797174393179204e-13,177200.0,0.0,2.4492935982947064e-14,-200.0,0.0,0.0,0.0,0.0,200.0,3.141592653589793,0.0,0.0,0.0,0.0,0.0,0.0,0.0,0.0
41,1,Target,41.0,1.004210375300858e-12,177000.0,0.0,2.4492935982947064e-14,-200.0,0.0,0.0,0.0,0.0,200.0,3.141592653589793,0.0,0.0,0.0,0.0,0.0,0.0,0.0,0.0
42,1,Target,42.0,1.0287033112837954e-12,176800.0,0.0,2.4492935982947064e-14,-200.0,0.0,0.0,0.0,0.0,200.0,3.141592653589793,0.0,0.0,0.0,0.0,0.0,0.0,0.0,0.0
43,1,Target,43.0,1.053196247266733e-12,176600.0,0.0,2.4492935982947064e-14,-200.0,0.0,0.0,0.0,0.0,200.0,3.141592653589793,0.0,0.0,0.0,0.0,0.0,0.0,0.0,0.0
44,1,Target,44.0,1.0776891832496705e-12,176400.0,0.0,2.4492935982947064e-14,-200.0,0.0,0.0,0.0,0.0,200.0,3.141592653589793,0.0,0.0,0.0,0.0,0.0,0.0,0.0,0.0
45,1,Target,45.0,1.102182119232608e-12,176200.0,0.0,2.4492935982947064e-14,-200.0,0.0,0.0,0.0,0.0,200.0,3.141592653589793,0.0,0.0,0.0,0.0,0.0,0.0,0.0,0.0
46,1,Target,46.0,1.1266750552155456e-12,176000.0,0.0,2.4492935982947064e-14,-200.0,0.0,0.0,0.0,0.0,200.0,3.141592653589793,0.0,0.0,0.0,0.0,0.0,0.0,0.0,0.0
47,1,Target,47.0,1.1511679911984831e-12,175800.0,0.0,2.4492935982947064e-14,-200.0,0.0,0.0,0.0,0.0,200.0,3.141592653589793,0.0,0.0,0.0,0.0,0.0,0.0,0.0,0.0
48,1,Target,48.0,1.1756609271814207e-12,175600.0,0.0,2.4492935982947064e-14,-200.0,0.0,0.0,0.0,0.0,200.0,3.141592653589793,0.0,0.0,0.0,0.0,0.0,0.0,0.0,0.0
49,1,Target,49.0,1.2001538631643582e-12,175400.0,0.0,2.4492935982947064e-14,-200.0,0.0,0.0,0.0,0.0,200.0,3.141592653589793,0.0,0.0,0.0,0.0,0.0,0.0,0.0,0.0
50,1,Target,50.0,1.2246467991472957e-12,175200.0,0.0,2.4492935982947064e-14,-200.0,0.0,0.0,0.0,0.0,200.0,3.141592653589793,0.0,0.0,0.0,0.0,0.0,0.0,0.0,0.0
51,1,Target,51.0,1.2491397351302333e-12,175000.0,0.0,2.4492935982947064e-14,-200.0,0.0,0.0,0.0,0.0,200.0,3.141592653589793,0.0,0.0,0.0,0.0,0.0,0.0,0.0,0.0
52,1,Target,52.0,1.2736326711131708e-12,174800.0,0.0,2.4492935982947064e-14,-200.0,0.0,0.0,0.0,0.0,200.0,3.141592653589793,0.0,0.0,0.0,0.0,0.0,0.0,0.0,0.0
53,1,Target,53.0,1.2981256070961084e-12,174600.0,0.0,2.4492935982947064e-14,-200.0,0.0,0.0,0.0,0.0,200.0,3.141592653589793,0.0,0.0,0.0,0.0,0.0,0.0,0.0,0.0
54,1,Target,54.0,1.3226185430790459e-12,174400.0,0.0,2.4492935982947064e-14,-200.0,0.0,0.0,0.0,0.0,200.0,3.141592653589793,0.0,0.0,0.0,0.0,0.0,0.0,0.0,0.0
55,1,Target,55.0,1.3471114790619834e-12,174200.0,0.0,2.4492935982947064e-14,-200.0,0.0,0.0,0.0,0.0,200.0,3.141592653589793,0.0,0.0,0.0,0.0,0.0,0.0,0.0,0.0
56,1,Target,56.0,1.371604415044921e-12,174000.0,0.0,2.4492935982947064e-14,-200.0,0.0,0.0,0.0,0.0,200.0,3.141592653589793,0.0,0.0,0.0,0.0,0.0,0.0,0.0,0.0
57,1,Target,57.0,1.3960973510278585e-12,173800.0,0.0,2.4492935982947064e-14,-200.0,0.0,0.0,0.0,0.0,200.0,3.141592653589793,0.0,0.0,0.0,0.0,0.0,0.0,0.0,0.0
58,1,Target,58.0,1.420590287010796e-12,173600.0,0.0,2.4492935982947064e-14,-200.0,0.0,0.0,0.0,0.0,200.0,3.141592653589793,0.0,0.0,0.0,0.0,0.0,0.0,0.0,0.0
59,1,Target,59.0,1.4450832229937336e-12,173400.0,0.0,2.4492935982947064e-14,-200.0,0.0,0.0,0.0,0.0,200.0,3.141592653589793,0.0,0.0,0.0,0.0,0.0,0.0,0.0,0.0
60,1,Target,60.0,1.4695761589766711e-12,173200.0,0.0,2.4492935982947064e-14,-200.0,0.0,0.0,0.0,0.0,200.0,3.141592653589793,0.0,0.0,0.0,0.0,0.0,0.0,0.0,0.0
61,1,Target,61.0,1.4940690949596087e-12,173000.0,0.0,2.4492935982947064e-14,-200.0,0.0,0.0,0.0,0.0,200.0,3.141592653589793,0.0,0.0,0.0,0.0,0.0,0.0,0.0,0.0
62,1,Target,62.0,1.5185620309425462e-12,172800.0,0.0,2.4492935982947064e-14,-200.0,0.0,0.0,0.0,0.0,200.0,3.141592653589793,0.0,0.0,0.0,0.0,0.0,0.0,0.0,0.0
63,1,Target,63.0,1.5430549669254837e-12,172600.0,0.0,2.4492935982947064e-14,-200.0,0.0,0.0,0.0,0.0,200.0,3.141592653589793,0.0,0.0,0.0,0.0,0.0,0.0,0.0,0.0
64,1,Target,64.0,1.5675479029084213e-12,172400.0,0.0,2.4492935982947064e-14,-200.0,0.0,0.0,0.0,0.0,200.0,3.141592653589793,0.0,0.0,0.0,0.0,0.0,0.0,0.0,0.0
65,1,Target,65.0,1.5920408388913588e-12,172200.0,0.0,2.4492935982947064e-14,-200.0,0.0,0.0,0.0,0.0,200.0,3.141592653589793,0.0,0.0,0.0,0.0,0.0,0.0,0.0,0.0
66,1,Target,66.0,1.6165337748742964e-12,172000.0,0.0,2.4492935982947064e-14,-200.0,0.0,0.0,0.0,0.0,200.0,3.141592653589793,0.0,0.0,0.0,0.0,0.0,0.0,0.0,0.0
67,1,Target,67.0,1.6410267108572339e-12,171800.0,0.0,2.4492935982947064e-14,-200.0,0.0,0.0,0.0,0.0,200.0,3.141592653589793,0.0,0.0,0.0,0.0,0.0,0.0,0.0,0.0
68,1,Target,68.0,1.6655196468401714e-12,171600.0,0.0,2.4492935982947064e-14,-200.0,0.0,0.0,0.0,0.0,200.0,3.141592653589793,0.0,0.0,0.0,0.0,0.0,0.0,0.0,0.0
69,1,Target,69.0,1.690012582823109e-12,171400.0,0.0,2.4492935982947064e-14,-200.0,0.0,0.0,0.0,0.0,200.0,3.141592653589793,0.0,0.0,0.0,0.0,0.0,0.0,0.0,0.0
70,1,Target,70.0,1.7145055188060465e-12,171200.0,0.0,2.4492935982947064e-14,-200.0,0.0,0.0,0.0,0.0,200.0,3.141592653589793,0.0,0.0,0.0,0.0,0.0,0.0,0.0,0.0
71,1,Target,71.0,1.738998454788984e-12,171000.0,0.0,2.4492935982947064e-14,-200.0,0.0,0.0,0.0,0.0,200.0,3.141592653589793,0.0,0.0,0.0,0.0,0.0,0.0,0.0,0.0
72,1,Target,72.0,1.7634913907719216e-12,170800.0,0.0,2.4492935982947064e-14,-200.0,0.0,0.0,0.0,0.0,200.0,3.141592653589793,0.0,0.0,0.0,0.0,0.0,0.0,0.0,0.0
73,1,Target,73.0,1.7879843267548591e-12,170600.0,0.0,2.4492935982947064e-14,-200.0,0.0,0.0,0.0,0.0,200.0,3.141592653589793,0.0,0.0,0.0,0.0,0.0,0.0,0.0,0.0
74,1,Target,74.0,1.8124772627377967e-12,170400.0,0.0,2.4492935982947064e-14,-200.0,0.0,0.0,0.0,0.0,200.0,3.141592653589793,0.0,0.0,0.0,0.0,0.0,0.0,0.0,0.0
75,1,Target,75.0,1.836970198720734e-12,170200.0,0.0,2.4492935982947064e-14,-200.0,0.0,0.0,0.0,0.0,200.0,3.141592653589793,0.0,0.0,0.0,0.0,0.0,0.0,0.0,0.0
76,1,Target,76.0,1.8614631347036717e-12,170000.0,0.0,2.4492935982947064e-14,-200.0,0.0,0.0,0.0,0.0,200.0,3.141592653589793,0.0,0.0,0.0,0.0,0.0,0.0,0.0,0.0
77,1,Target,77.0,1.8859560706866093e-12,169800.0,0.0,2.4492935982947064e-14,-200.0,0.0,0.0,0.0,0.0,200.0,3.141592653589793,0.0,0.0,0.0,0.0,0.0,0.0,0.0,0.0
78,1,Target,78.0,1.910449006669547e-12,169600.0,0.0,2.4492935982947064e-14,-200.0,0.0,0.0,0.0,0.0,200.0,3.141592653589793,0.0,0.0,0.0,0.0,0.0,0.0,0.0,0.0
79,1,Target,79.0,1.9349419426524843e-12,169400.0,0.0,2.4492935982947064e-14,-200.0,0.0,0.0,0.0,0.0,200.0,3.141592653589793,0.0,0.0,0.0,0.0,0.0,0.0,0.0,0.0
80,1,Target,80.0,1.959434878635422e-12,169200.0,0.0,2.4492935982947064e-14,-200.0,0.0,0.0,0.0,0.0,200.0,3.141592653589793,0.0,0.0,0.0,0.0,0.0,0.0,0.0,0.0
81,1,Target,81.0,1.9839278146183594e-12,169000.0,0.0,2.4492935982947064e-14,-200.0,0.0,0.0,0.0,0.0,200.0,3.141592653589793,0.0,0.0,0.0,0.0,0.0,0.0,0.0,0.0
82,1,Target,82.0,2.008420750601297e-12,168800.0,0.0,2.4492935982947064e-14,-200.0,0.0,0.0,0.0,0.0,200.0,3.141592653589793,0.0,0.0,0.0,0.0,0.0,0.0,0.0,0.0
83,1,Target,83.0,2.0329136865842345e-12,168600.0,0.0,2.4492935982947064e-14,-200.0,0.0,0.0,0.0,0.0,200.0,3.141592653589793,0.0,0.0,0.0,0.0,0.0,0.0,0.0,0.0
84,1,Target,84.0,2.057406622567172e-12,168400.0,0.0,2.4492935982947064e-14,-200.0,0.0,0.0,0.0,0.0,200.0,3.141592653589793,0.0,0.0,0.0,0.0,0.0,0.0,0.0,0.0
85,1,Target,85.0,2.0818995585501096e-12,168200.0,0.0,2.4492935982947064e-14,-200.0,0.0,0.0,0.0,0.0,200.0,3.141592653589793,0.0,0.0,0.0,0.0,0.0,0.0,0.0,0.0
86,1,Target,86.0,2.106392494533047e-12,168000.0,0.0,2.4492935982947064e-14,-200.0,0.0,0.0,0.0,0.0,200.0,3.141592653589793,0.0,0.0,0.0,0.0,0.0,0.0,0.0,0.0
87,1,Target,87.0,2.1308854305159847e-12,167800.0,0.0,2.4492935982947064e-14,-200.0,0.0,0.0,0.0,0.0,200.0,3.141592653589793,0.0,0.0,0.0,0.0,0.0,0.0,0.0,0.0
88,1,Target,88.0,2.155378366498922e-12,167600.0,0.0,2.4492935982947064e-14,-200.0,0.0,0.0,0.0,0.0,200.0,3.141592653589793,0.0,0.0,0.0,0.0,0.0,0.0,0.0,0.0
89,1,Target,89.0,2.1798713024818597e-12,167400.0,0.0,2.4492935982947064e-14,-200.0,0.0,0.0,0.0,0.0,200.0,3.141592653589793,0.0,0.0,0.0,0.0,0.0,0.0,0.0,0.0
90,1,Target,90.0,2.2043642384647973e-12,167200.0,0.0,2.4492935982947064e-14,-200.0,0.0,0.0,0.0,0.0,200.0,3.141592653589793,0.0,0.0,0.0,0.0,0.0,0.0,0.0,0.0
91,1,Target,91.0,2.228857174447735e-12,167000.0,0.0,2.4492935982947064e-14,-200.0,0.0,0.0,0.0,0.0,200.0,3.141592653589793,0.0,0.0,0.0,0.0,0.0,0.0,0.0,0.0
92,1,Target,92.0,2.2533501104306723e-12,166800.0,0.0,2.4492935982947064e-14,-200.0,0.0,0.0,0.0,0.0,200.0,3.141592653589793,0.0,0.0,0.0,0.0,0.0,0.0,0.0,0.0
93,1,Target,93.0,2.27784304641361e-12,166600.0,0.0,2.4492935982947064e-14,-200.0,0.0,0.0,0.0,0.0,200.0,3.141592653589793,0.0,0.0,0.0,0.0,0.0,0.0,0.0,0.0
94,1,Target,94.0,2.3023359823965474e-12,166400.0,0.0,2.4492935982947064e-14,-200.0,0.0,0.0,0.0,0.0,200.0,3.141592653589793,0.0,0.0,0.0,0.0,0.0,0.0,0.0,0.0
95,1,Target,95.0,2.326828918379485e-12,166200.0,0.0,2.4492935982947064e-14,-200.0,0.0,0.0,0.0,0.0,200.0,3.141592653589793,0.0,0.0,0.0,0.0,0.0,0.0,0.0,0.0
96,1,Target,96.0,2.3513218543624225e-12,166000.0,0.0,2.4492935982947064e-14,-200.0,0.0,0.0,0.0,0.0,200.0,3.141592653589793,0.0,0.0,0.0,0.0,0.0,0.0,0.0,0.0
97,1,Target,97.0,2.37581479034536e-12,165800.0,0.0,2.4492935982947064e-14,-200.0,0.0,0.0,0.0,0.0,200.0,3.141592653589793,0.0,0.0,0.0,0.0,0.0,0.0,0.0,0.0
98,1,Target,98.0,2.4003077263282976e-12,165600.0,0.0,2.4492935982947064e-14,-200.0,0.0,0.0,0.0,0.0,200.0,3.141592653589793,0.0,0.0,0.0,0.0,0.0,0.0,0.0,0.0
99,1,Target,99.0,2.424800662311235e-12,165400.0,0.0,2.4492935982947064e-14,-200.0,0.0,0.0,0.0,0.0,200.0,3.141592653589793,0.0,0.0,0.0,0.0,0.0,0.0,0.0,0.0
100,1,Target,100.0,2.4492935982941726e-12,165200.0,0.0,2.4492935982947064e-14,-200.0,0.0,0.0,0.0,0.0,200.0,3.141592653589793,0.0,0.0,0.0,0.0,0.0,0.0,0.0,0.0
101,1,Target,101.0,2.4741651247096186e-12,164996.90857451505,0.0,2.5402409477341283e-14,-207.42641466116947,0.0,1.1793744950062674e-15,-9.630323582499278,0.0,207.42641466116947,3.141592653589793,0.0,0.0,0.0,0.0,0.0,9.630323582501521,0.0,0.0
102,1,Target,102.0,2.50016710399635e-12,164784.5863008209,0.0,2.659844156044988e-14,-217.19275777284315,0.0,1.2009754923712313e-15,-9.806709111618199,0.0,217.19275777284315,3.141592653589793,0.0,0.0,0.0,0.0,0.0,9.806709111620275,0.0,0.0
103,1,Target,103.0,2.5273691627446583e-12,164562.46463466174,0.0,2.7799722147189828e-14,-227.0019581690417,0.0,1.2013711284387013e-15,-9.809939725275681,0.0,227.0019581690417,3.141592653589793,0.0,0.0,0.0,0.0,0.0,9.80993972527682,0.0,0.0
104,1,Target,104.0,2.555772576210028e-12,164330.5331627864,0.0,2.9001098863626984e-14,-236.81194352378725,0.0,1.2013783747660397e-15,-9.809998896028956,0.0,236.81194352378725,3.141592653589793,0.0,0.0,0.0,0.0,0.0,9.809998896029935,0.0,0.0
105,1,Target,105.0,2.58537736774958e-12,164088.79169446946,0.0,3.020247734074095e-14,-246.62194325555,0.0,1.201378507487785e-15,-9.809999979782843,0.0,246.62194325555,3.141592653589793,0.0,0.0,0.0,0.0,0.0,9.809999979780086,0.0,0.0
106,1,Target,106.0,2.6161835377911158e-12,163837.2402262176,0.0,3.140385585010284e-14,-256.43194325063706,0.0,1.2013785099174766e-15,-9.80999999962688,0.0,256.43194325063706,3.141592653589793,0.0,0.0,0.0,0.0,0.0,9.809999999629662,0.0,0.0
107,1,Target,107.0,2.6481910863424662e-12,163575.87875796712,0.0,3.260523436005536e-14,-266.24194325054697,0.0,1.2013785099616528e-15,-9.809999999990678,0.0,266.24194325054697,3.141592653589793,0.0,0.0,0.0,0.0,0.0,9.809999999993218,0.0,0.0
108,1,Target,108.0,2.681400013403776e-12,163304.70728971655,0.0,3.3806612870018815e-14,-276.0519432505462,0.0,1.201378509962915e-15,-9.810000000002047,0.0,276.0519432505462,3.141592653589793,0.0,0.0,0.0,0.0,0.0,9.809999999999876,0.0,0.0
109,1,Target,109.0,2.7158103189750508e-12,163023.725821466,0.0,3.500799137998242e-14,-285.8619432505466,0.0,1.201378509962915e-15,-9.810000000002047,0.0,285.8619432505466,3.141592653589793,0.0,0.0,0.0,0.0,0.0,9.809999999999956,0.0,0.0
110,1,Target,110.0,2.7514220030562913e-12,162732.9343532155,0.0,3.620936988994602e-14,-295.671943250547,0.0,1.201378509962915e-15,-9.810000000002047,0.0,295.671943250547,3.141592653589793,0.0,0.0,0.0,0.0,0.0,9.809999999999956,0.0,0.0
111,1,Target,111.0,2.788045806989677e-12,162433.8782991852,0.0,3.6739403974420595e-14,-300.0,0.0,0.0,0.0,0.0,300.0,3.141592653589793,0.0,0.0,0.0,0.0,0.0,0.0,0.0,0.0
112,1,Target,112.0,2.8247852109641108e-12,162133.8782991852,0.0,3.6739403974420595e-14,-300.0,0.0,0.0,0.0,0.0,300.0,3.141592653589793,0.0,0.0,0.0,0.0,0.0,0.0,0.0,0.0
113,1,Target,113.0,2.8615246149385445e-12,161833.8782991852,0.0,3.6739403974420595e-14,-300.0,0.0,0.0,0.0,0.0,300.0,3.141592653589793,0.0,0.0,0.0,0.0,0.0,0.0,0.0,0.0
114,1,Target,114.0,2.8982640189129783e-12,161533.8782991852,0.0,3.6739403974420595e-14,-300.0,0.0,0.0,0.0,0.0,300.0,3.141592653589793,0.0,0.0,0.0,0.0,0.0,0.0,0.0,0.0
115,1,Target,115.0,2.935003422887412e-12,161233.8782991852,0.0,3.6739403974420595e-14,-300.0,0.0,0.0,0.0,0.0,300.0,3.141592653589793,0.0,0.0,0.0,0.0,0.0,0.0,0.0,0.0
116,1,Target,116.0,2.971742826861846e-12,160933.8782991852,0.0,3.6739403974420595e-14,-300.0,0.0,0.0,0.0,0.0,300.0,3.141592653589793,0.0,0.0,0.0,0.0,0.0,0.0,0.0,0.0
117,1,Target,117.0,3.0084822308362796e-12,160633.8782991852,0.0,3.6739403974420595e-14,-300.0,0.0,0.0,0.0,0.0,300.0,3.141592653589793,0.0,0.0,0.0,0.0,0.0,0.0,0.0,0.0
118,1,Target,118.0,3.0452216348107134e-12,160333.8782991852,0.0,3.6739403974420595e-14,-300.0,0.0,0.0,0.0,0.0,300.0,3.141592653589793,0.0,0.0,0.0,0.0,0.0,0.0,0.0,0.0
119,1,Target,119.0,3.081961038785147e-12,160033.8782991852,0.0,3.6739403974420595e-14,-300.0,0.0,0.0,0.0,0.0,300.0,3.141592653589793,0.0,0.0,0.0,0.0,0.0,0.0,0.0,0.0
120,1,Target,120.0,3.118700442759581e-12,159733.8782991852,0.0,3.6739403974420595e-14,-300.0,0.0,0.0,0.0,0.0,300.0,3.141592653589793,0.0,0.0,0.0,0.0,0.0,0.0,0.0,0.0
121,1,Target,121.0,3.1554398467340147e-12,159433.8782991852,0.0,3.6739403974420595e-14,-300.0,0.0,0.0,0.0,0.0,300.0,3.141592653589793,0.0,0.0,0.0,0.0,0.0,0.0,0.0,0.0
122,1,Target,122.0,3.1921792507084485e-12,159133.8782991852,0.0,3.6739403974420595e-14,-300.0,0.0,0.0,0.0,0.0,300.0,3.141592653589793,0.0,0.0,0.0,0.0,0.0,0.0,0.0,0.0
123,1,Target,123.0,3.2289186546828823e-12,158833.8782991852,0.0,3.6739403974420595e-14,-300.0,0.0,0.0,0.0,0.0,300.0,3.141592653589793,0.0,0.0,0.0,0.0,0.0,0.0,0.0,0.0
124,1,Target,124.0,3.265658058657316e-12,158533.8782991852,0.0,3.6739403974420595e-14,-300.0,0.0,0.0,0.0,0.0,300.0,3.141592653589793,0.0,0.0,0.0,0.0,0.0,0.0,0.0,0.0
125,1,Target,125.0,3.30239746263175e-12,158233.8782991852,0.0,3.6739403974420595e-14,-300.0,0.0,0.0,0.0,0.0,300.0,3.141592653589793,0.0,0.0,0.0,0.0,0.0,0.0,0.0,0.0
126,1,Target,126.0,3.3391368666061836e-12,157933.8782991852,0.0,3.6739403974420595e-14,-300.0,0.0,0.0,0.0,0.0,300.0,3.141592653589793,0.0,0.0,0.0,0.0,0.0,0.0,0.0,0.0
127,1,Target,127.0,3.3758762705806174e-12,157633.8782991852,0.0,3.6739403974420595e-14,-300.0,0.0,0.0,0.0,0.0,300.0,3.141592653589793,0.0,0.0,0.0,0.0,0.0,0.0,0.0,0.0
128,1,Target,128.0,3.412615674555051e-12,157333.8782991852,0.0,3.6739403974420595e-14,-300.0,0.0,0.0,0.0,0.0,300.0,3.141592653589793,0.0,0.0,0.0,0.0,0.0,0.0,0.0,0.0
129,1,Target,129.0,3.449355078529485e-12,157033.8782991852,0.0,3.6739403974420595e-14,-300.0,0.0,0.0,0.0,0.0,300.0,3.141592653589793,0.0,0.0,0.0,0.0,0.0,0.0,0.0,0.0
130,1,Target,130.0,3.4860944825039187e-12,156733.8782991852,0.0,3.6739403974420595e-14,-300.0,0.0,0.0,0.0,0.0,300.0,3.141592653589793,0.0,0.0,0.0,0.0,0.0,0.0,0.0,0.0
131,1,Target,131.0,3.5228338864783524e-12,156433.8782991852,0.0,3.6739403974420595e-14,-300.0,0.0,0.0,0.0,0.0,300.0,3.141592653589793,0.0,0.0,0.0,0.0,0.0,0.0,0.0,0.0
132,1,Target,132.0,3.5595732904527862e-12,156133.8782991852,0.0,3.6739403974420595e-14,-300.0,0.0,0.0,0.0,0.0,300.0,3.141592653589793,0.0,0.0,0.0,0.0,0.0,0.0,0.0,0.0
133,1,Target,133.0,3.59631269442722e-12,155833.8782991852,0.0,3.6739403974420595e-14,-300.0,0.0,0.0,0.0,0.0,300.0,3.141592653589793,0.0,0.0,0.0,0.0,0.0,0.0,0.0,0.0
134,1,Target,134.0,3.6330520984016538e-12,155533.8782991852,0.0,3.6739403974420595e-14,-300.0,0.0,0.0,0.0,0.0,300.0,3.141592653589793,0.0,0.0,0.0,0.0,0.0,0.0,0.0,0.0
135,1,Target,135.0,3.669791502376087e-12,155233.8782991852,0.0,3.6739403974420595e-14,-300.0,0.0,0.0,0.0,0.0,300.0,3.141592653589793,0.0,0.0,0.0,0.0,0.0,0.0,0.0,0.0
136,1,Target,136.0,3.706530906350521e-12,154933.8782991852,0.0,3.6739403974420595e-14,-300.0,0.0,0.0,0.0,0.0,300.0,3.141592653589793,0.0,0.0,0.0,0.0,0.0,0.0,0.0,0.0
137,1,Target,137.0,3.743270310324955e-12,154633.8782991852,0.0,3.6739403974420595e-14,-300.0,0.0,0.0,0.0,0.0,300.0,3.141592653589793,0.0,0.0,0.0,0.0,0.0,0.0,0.0,0.0
138,1,Target,138.0,3.7800097142993884e-12,154333.8782991852,0.0,3.6739403974420595e-14,-300.0,0.0,0.0,0.0,0.0,300.0,3.141592653589793,0.0,0.0,0.0,0.0,0.0,0.0,0.0,0.0
139,1,Target,139.0,3.816749118273822e-12,154033.8782991852,0.0,3.6739403974420595e-14,-300.0,0.0,0.0,0.0,0.0,300.0,3.141592653589793,0.0,0.0,0.0,0.0,0.0,0.0,0.0,0.0
140,1,Target,140.0,3.853488522248256e-12,153733.8782991852,0.0,3.6739403974420595e-14,-300.0,0.0,0.0,0.0,0.0,300.0,3.141592653589793,0.0,0.0,0.0,0.0,0.0,0.0,0.0,0.0
141,1,Target,141.0,3.89022792622269e-12,153433.8782991852,0.0,3.6739403974420595e-14,-300.0,0.0,0.0,0.0,0.0,300.0,3.141592653589793,0.0,0.0,0.0,0.0,0.0,0.0,0.0,0.0
142,1,Target,142.0,3.9269673301971235e-12,153133.8782991852,0.0,3.6739403974420595e-14,-300.0,0.0,0.0,0.0,0.0,300.0,3.141592653589793,0.0,0.0,0.0,0.0,0.0,0.0,0.0,0.0
143,1,Target,143.0,3.963706734171557e-12,152833.8782991852,0.0,3.6739403974420595e-14,-300.0,0.0,0.0,0.0,0.0,300.0,3.141592653589793,0.0,0.0,0.0,0.0,0.0,0.0,0.0,0.0
144,1,Target,144.0,4.000446138145991e-12,152533.8782991852,0.0,3.6739403974420595e-14,-300.0,0.0,0.0,0.0,0.0,300.0,3.141592653589793,0.0,0.0,0.0,0.0,0.0,0.0,0.0,0.0
145,1,Target,145.0,4.037185542120425e-12,152233.8782991852,0.0,3.6739403974420595e-14,-300.0,0.0,0.0,0.0,0.0,300.0,3.141592653589793,0.0,0.0,0.0,0.0,0.0,0.0,0.0,0.0
146,1,Target,146.0,4.073924946094859e-12,151933.8782991852,0.0,3.6739403974420595e-14,-300.0,0.0,0.0,0.0,0.0,300.0,3.141592653589793,0.0,0.0,0.0,0.0,0.0,0.0,0.0,0.0
147,1,Target,147.0,4.110664350069292e-12,151633.8782991852,0.0,3.6739403974420595e-14,-300.0,0.0,0.0,0.0,0.0,300.0,3.141592653589793,0.0,0.0,0.0,0.0,0.0,0.0,0.0,0.0
148,1,Target,148.0,4.147403754043726e-12,151333.8782991852,0.0,3.6739403974420595e-14,-300.0,0.0,0.0,0.0,0.0,300.0,3.141592653589793,0.0,0.0,0.0,0.0,0.0,0.0,0.0,0.0
149,1,Target,149.0,4.18414315801816e-12,151033.8782991852,0.0,3.6739403974420595e-14,-300.0,0.0,0.0,0.0,0.0,300.0,3.141592653589793,0.0,0.0,0.0,0.0,0.0,0.0,0.0,0.0
150,1,Target,150.0,4.220882561992594e-12,150733.8782991852,0.0,3.6739403974420595e-14,-300.0,0.0,0.0,0.0,0.0,300.0,3.141592653589793,0.0,0.0,0.0,0.0,0.0,0.0,0.0,0.0
151,1,Target,151.0,4.2576219659670275e-12,150433.8782991852,0.0,3.6739403974420595e-14,-300.0,0.0,0.0,0.0,0.0,300.0,3.141592653589793,0.0,0.0,0.0,0.0,0.0,0.0,0.0,0.0
152,1,Target,152.0,4.294361369941461e-12,150133.8782991852,0.0,3.6739403974420595e-14,-300.0,0.0,0.0,0.0,0.0,300.0,3.141592653589793,0.0,0.0,0.0,0.0,0.0,0.0,0.0,0.0
153,1,Target,153.0,4.331100773915895e-12,149833.8782991852,0.0,3.6739403974420595e-14,-300.0,0.0,0.0,0.0,0.0,300.0,3.141592653589793,0.0,0.0,0.0,0.0,0.0,0.0,0.0,0.0
154,1,Target,154.0,4.367840177890329e-12,149533.8782991852,0.0,3.6739403974420595e-14,-300.0,0.0,0.0,0.0,0.0,300.0,3.141592653589793,0.0,0.0,0.0,0.0,0.0,0.0,0.0,0.0
155,1,Target,155.0,4.4045795818647626e-12,149233.8782991852,0.0,3.6739403974420595e-14,-300.0,0.0,0.0,0.0,0.0,300.0,3.141592653589793,0.0,0.0,0.0,0.0,0.0,0.0,0.0,0.0
156,1,Target,156.0,4.441318985839196e-12,148933.8782991852,0.0,3.6739403974420595e-14,-300.0,0.0,0.0,0.0,0.0,300.0,3.141592653589793,0.0,0.0,0.0,0.0,0.0,0.0,0.0,0.0
157,1,Target,157.0,4.47805838981363e-12,148633.8782991852,0.0,3.6739403974420595e-14,-300.0,0.0,0.0,0.0,0.0,300.0,3.141592653589793,0.0,0.0,0.0,0.0,0.0,0.0,0.0,0.0
158,1,Target,158.0,4.514797793788064e-12,148333.8782991852,0.0,3.6739403974420595e-14,-300.0,0.0,0.0,0.0,0.0,300.0,3.141592653589793,0.0,0.0,0.0,0.0,0.0,0.0,0.0,0.0
159,1,Target,159.0,4.551537197762498e-12,148033.8782991852,0.0,3.6739403974420595e-14,-300.0,0.0,0.0,0.0,0.0,300.0,3.141592653589793,0.0,0.0,0.0,0.0,0.0,0.0,0.0,0.0
160,1,Target,160.0,4.5882766017369314e-12,147733.8782991852,0.0,3.6739403974420595e-14,-300.0,0.0,0.0,0.0,0.0,300.0,3.141592653589793,0.0,0.0,0.0,0.0,0.0,0.0,0.0,0.0
161,1,Target,161.0,4.625016005711365e-12,147433.8782991852,0.0,3.6739403974420595e-14,-300.0,0.0,0.0,0.0,0.0,300.0,3.141592653589793,0.0,0.0,0.0,0.0,0.0,0.0,0.0,0.0
162,1,Target,162.0,4.661755409685799e-12,147133.8782991852,0.0,3.6739403974420595e-14,-300.0,0.0,0.0,0.0,0.0,300.0,3.141592653589793,0.0,0.0,0.0,0.0,0.0,0.0,0.0,0.0
163,1,Target,163.0,4.698494813660233e-12,146833.8782991852,0.0,3.6739403974420595e-14,-300.0,0.0,0.0,0.0,0.0,300.0,3.141592653589793,0.0,0.0,0.0,0.0,0.0,0.0,0.0,0.0
164,1,Target,164.0,4.7352342176346665e-12,146533.8782991852,0.0,3.6739403974420595e-14,-300.0,0.0,0.0,0.0,0.0,300.0,3.141592653589793,0.0,0.0,0.0,0.0,0.0,0.0,0.0,0.0
165,1,Target,165.0,4.7719736216091e-12,146233.8782991852,0.0,3.6739403974420595e-14,-300.0,0.0,0.0,0.0,0.0,300.0,3.141592653589793,0.0,0.0,0.0,0.0,0.0,0.0,0.0,0.0
166,1,Target,166.0,4.808713025583534e-12,145933.8782991852,0.0,3.6739403974420595e-14,-300.0,0.0,0.0,0.0,0.0,300.0,3.141592653589793,0.0,0.0,0.0,0.0,0.0,0.0,0.0,0.0
167,1,Target,167.0,4.845452429557968e-12,145633.8782991852,0.0,3.6739403974420595e-14,-300.0,0.0,0.0,0.0,0.0,300.0,3.141592653589793,0.0,0.0,0.0,0.0,0.0,0.0,0.0,0.0
168,1,Target,168.0,4.882191833532402e-12,145333.8782991852,0.0,3.6739403974420595e-14,-300.0,0.0,0.0,0.0,0.0,300.0,3.141592653589793,0.0,0.0,0.0,0.0,0.0,0.0,0.0,0.0
169,1,Target,169.0,4.918931237506835e-12,145033.8782991852,0.0,3.6739403974420595e-14,-300.0,0.0,0.0,0.0,0.0,300.0,3.141592653589793,0.0,0.0,0.0,0.0,0.0,0.0,0.0,0.0
170,1,Target,170.0,4.955670641481269e-12,144733.8782991852,0.0,3.6739403974420595e-14,-300.0,0.0,0.0,0.0,0.0,300.0,3.141592653589793,0.0,0.0,0.0,0.0,0.0,0.0,0.0,0.0
171,1,Target,171.0,4.992410045455703e-12,144433.8782991852,0.0,3.6739403974420595e-14,-300.0,0.0,0.0,0.0,0.0,300.0,3.141592653589793,0.0,0.0,0.0,0.0,0.0,0.0,0.0,0.0
172,1,Target,172.0,5.029149449430137e-12,144133.8782991852,0.0,3.6739403974420595e-14,-300.0,0.0,0.0,0.0,0.0,300.0,3.141592653589793,0.0,0.0,0.0,0.0,0.0,0.0,0.0,0.0
173,1,Target,173.0,5.0658888534045705e-12,143833.8782991852,0.0,3.6739403974420595e-14,-300.0,0.0,0.0,0.0,0.0,300.0,3.141592653589793,0.0,0.0,0.0,0.0,0.0,0.0,0.0,0.0
174,1,Target,174.0,5.102628257379004e-12,143533.8782991852,0.0,3.6739403974420595e-14,-300.0,0.0,0.0,0.0,0.0,300.0,3.141592653589793,0.0,0.0,0.0,0.0,0.0,0.0,0.0,0.0
175,1,Target,175.0,5.139367661353438e-12,143233.8782991852,0.0,3.6739403974420595e-14,-300.0,0.0,0.0,0.0,0.0,300.0,3.141592653589793,0.0,0.0,0.0,0.0,0.0,0.0,0.0,0.0
176,1,Target,176.0,5.176107065327872e-12,142933.8782991852,0.0,3.6739403974420595e-14,-300.0,0.0,0.0,0.0,0.0,300.0,3.141592653589793,0.0,0.0,0.0,0.0,0.0,0.0,0.0,0.0
177,1,Target,177.0,5.2128464693023056e-12,142633.8782991852,0.0,3.6739403974420595e-14,-300.0,0.0,0.0,0.0,0.0,300.0,3.141592653589793,0.0,0.0,0.0,0.0,0.0,0.0,0.0,0.0
178,1,Target,178.0,5.249585873276739e-12,142333.8782991852,0.0,3.6739403974420595e-14,-300.0,0.0,0.0,0.0,0.0,300.0,3.141592653589793,0.0,0.0,0.0,0.0,0.0,0.0,0.0,0.0
179,1,Target,179.0,5.286325277251173e-12,142033.8782991852,0.0,3.6739403974420595e-14,-300.0,0.0,0.0,0.0,0.0,300.0,3.141592653589793,0.0,0.0,0.0,0.0,0.0,0.0,0.0,0.0
180,1,Target,180.0,5.323064681225607e-12,141733.8782991852,0.0,3.6739403974420595e-14,-300.0,0.0,0.0,0.0,0.0,300.0,3.141592653589793,0.0,0.0,0.0,0.0,0.0,0.0,0.0,0.0
181,1,Target,181.0,5.359804085200041e-12,141433.8782991852,0.0,3.6739403974420595e-14,-300.0,0.0,0.0,0.0,0.0,300.0,3.141592653589793,0.0,0.0,0.0,0.0,0.0,0.0,0.0,0.0
182,1,Target,182.0,5.3965434891744744e-12,141133.8782991852,0.0,3.6739403974420595e-14,-300.0,0.0,0.0,0.0,0.0,300.0,3.141592653589793,0.0,0.0,0.0,0.0,0.0,0.0,0.0,0.0
183,1,Target,183.0,5.433282893148908e-12,140833.8782991852,0.0,3.6739403974420595e-14,-300.0,0.0,0.0,0.0,0.0,300.0,3.141592653589793,0.0,0.0,0.0,0.0,0.0,0.0,0.0,0.0
184,1,Target,184.0,5.470022297123342e-12,140533.8782991852,0.0,3.6739403974420595e-14,-300.0,0.0,0.0,0.0,0.0,300.0,3.141592653589793,0.0,0.0,0.0,0.0,0.0,0.0,0.0,0.0
185,1,Target,185.0,5.506761701097776e-12,140233.8782991852,0.0,3.6739403974420595e-14,-300.0,0.0,0.0,0.0,0.0,300.0,3.141592653589793,0.0,0.0,0.0,0.0,0.0,0.0,0.0,0.0
186,1,Target,186.0,5.5435011050722095e-12,139933.8782991852,0.0,3.6739403974420595e-14,-300.0,0.0,0.0,0.0,0.0,300.0,3.141592653589793,0.0,0.0,0.0,0.0,0.0,0.0,0.0,0.0
187,1,Target,187.0,5.580240509046643e-12,139633.8782991852,0.0,3.6739403974420595e-14,-300.0,0.0,0.0,0.0,0.0,300.0,3.141592653589793,0.0,0.0,0.0,0.0,0.0,0.0,0.0,0.0
188,1,Target,188.0,5.616979913021077e-12,139333.8782991852,0.0,3.6739403974420595e-14,-300.0,0.0,0.0,0.0,0.0,300.0,3.141592653589793,0.0,0.0,0.0,0.0,0.0,0.0,0.0,0.0
189,1,Target,189.0,5.653719316995511e-12,139033.8782991852,0.0,3.6739403974420595e-14,-300.0,0.0,0.0,0.0,0.0,300.0,3.141592653589793,0.0,0.0,0.0,0.0,0.0,0.0,0.0,0.0
190,1,Target,190.0,5.6904587209699446e-12,138733.8782991852,0.0,3.6739403974420595e-14,-300.0,0.0,0.0,0.0,0.0,300.0,3.141592653589793,0.0,0.0,0.0,0.0,0.0,0.0,0.0,0.0
191,1,Target,191.0,5.727198124944378e-12,138433.8782991852,0.0,3.6739403974420595e-14,-300.0,0.0,0.0,0.0,0.0,300.0,3.141592653589793,0.0,0.0,0.0,0.0,0.0,0.0,0.0,0.0
192,1,Target,192.0,5.763937528918812e-12,138133.8782991852,0.0,3.6739403974420595e-14,-300.0,0.0,0.0,0.0,0.0,300.0,3.141592653589793,0.0,0.0,0.0,0.0,0.0,0.0,0.0,0.0
193,1,Target,193.0,5.800676932893246e-12,137833.8782991852,0.0,3.6739403974420595e-14,-300.0,0.0,0.0,0.0,0.0,300.0,3.141592653589793,0.0,0.0,0.0,0.0,0.0,0.0,0.0,0.0
194,1,Target,194.0,5.83741633686768e-12,137533.8782991852,0.0,3.6739403974420595e-14,-300.0,0.0,0.0,0.0,0.0,300.0,3.141592653589793,0.0,0.0,0.0,0.0,0.0,0.0,0.0,0.0
195,1,Target,195.0,5.8741557408421135e-12,137233.8782991852,0.0,3.6739403974420595e-14,-300.0,0.0,0.0,0.0,0.0,300.0,3.141592653589793,0.0,0.0,0.0,0.0,0.0,0.0,0.0,0.0
196,1,Target,196.0,5.910895144816547e-12,136933.8782991852,0.0,3.6739403974420595e-14,-300.0,0.0,0.0,0.0,0.0,300.0,3.141592653589793,0.0,0.0,0.0,0.0,0.0,0.0,0.0,0.0
197,1,Target,197.0,5.947634548790981e-12,136633.8782991852,0.0,3.6739403974420595e-14,-300.0,0.0,0.0,0.0,0.0,300.0,3.141592653589793,0.0,0.0,0.0,0.0,0.0,0.0,0.0,0.0
198,1,Target,198.0,5.984373952765415e-12,136333.8782991852,0.0,3.6739403974420595e-14,-300.0,0.0,0.0,0.0,0.0,300.0,3.141592653589793,0.0,0.0,0.0,0.0,0.0,0.0,0.0,0.0
199,1,Target,199.0,6.0211133567398485e-12,136033.8782991852,0.0,3.6739403974420595e-14,-300.0,0.0,0.0,0.0,0.0,300.0,3.141592653589793,0.0,0.0,0.0,0.0,0.0,0.0,0.0,0.0
200,1,Target,200.0,6.057852760714282e-12,135733.8782991852,0.0,3.6739403974420595e-14,-300.0,0.0,0.0,0.0,0.0,300.0,3.141592653589793,0.0,0.0,0.0,0.0,0.0,0.0,0.0,0.0
201,1,Target,201.0,9.257913632263374,135434.32303809392,-9.27018350110076,22.197418510113245,-298.34849042537246,-22.258770684568688,28.57493355685646,4.261607495520149,-28.8118531169153,299.99999999999983,3.0673285069781038,-0.07426414661169023,0.0,-0.09630323582501522,-0.09630323582501522,0.0,0.0,28.890970747504557,28.890970747504557
202,1,Target,202.0,45.79340228852865,135139.0867290499,-46.12884216683499,50.56786061319162,-291.2193027634844,-51.32454745006865,27.70279121219052,9.904503121649581,-28.987614047911666,299.99999999999915,2.9696650758613625,-0.17192757772842526,0.0,-0.09806709111620303,-0.09806709111620303,0.0,0.0,29.42012733486083,29.42012733486083
203,1,Target,203.0,109.91142447529012,134853.74713444395,-111.92749403630059,77.1254373045794,-278.65328181036426,-80.02509267030379,25.2490369112993,15.119534460873291,-28.365373652764212,299.9999999999993,2.8715730718993893,-0.27001958169041274,0.0,-0.0980993972527684,-0.0980993972527684,0.0,0.0,29.429819175830453,29.429819175830453
204,1,Target,204.0,199.1824163710085,134583.50318469448,-206.06453511947095,100.7258509519,-261.14991205581606,-107.95844748445852,21.817300253539376,19.75170993225197,-27.4609520480902,299.99999999999903,2.7734732183519224,-0.36811943523786184,0.0,-0.09809998896029966,-0.09809998896029966,0.0,0.0,29.4299966880898,29.4299966880898
205,1,Target,205.0,311.62406376987514,134329.92229588452,-320.0303224220463,124.58859813406144,-247.58329177952135,-114.80502970952679,24.290917379752194,12.216184349216261,0.0,299.9999999999993,2.675373221034288,-0.3926990816987246,0.0,-0.09809999979780104,0.0,0.0,0.0,29.429999939340245,0.0
206,1,Target,206.0,448.20627272156446,134088.87557912094,-434.8353521315705,148.23856612306835,-234.19037697388643,-114.80502970952685,22.97764153438309,14.536568361014167,0.0,299.9999999999995,2.577273221083413,-0.3926990816987246,0.0,-0.09809999999629679,0.0,0.0,0.0,29.429999998888988,0.0
207,1,Target,207.0,607.7405750221836,133862.3650366421,-549.6403818410947,170.4630876887001,-218.54551216858454,-114.80502970952688,21.443415059675495,16.717170239887054,0.0,299.99999999999955,2.4791732210843342,-0.3926990816987246,0.0,-0.09809999999993232,0.0,0.0,0.0,29.429999999979653,0.0
208,1,Target,208.0,788.6929056301633,133652.5687699639,-664.4454115506189,191.04845416113292,-200.79913674126198,-114.80502970952699,19.70299096389654,18.73702157034244,0.0,299.99999999999983,2.3810732210842964,-0.3926990816987246,0.0,-0.09809999999999879,0.0,0.0,0.0,29.42999999999962,0.0
209,1,Target,209.0,989.323245997237,133461.50415788515,-779.2504412601431,209.79671882475304,-181.12189796863942,-114.80502970952712,17.773104982665267,20.576699675258922,0.0,300.00000000000017,2.2829732210842515,-0.3926990816987246,0.0,-0.09809999999999965,0.0,0.0,0.0,29.42999999999991,0.0
210,1,Target,210.0,1207.7023559062577,133291.00845758783,-894.0554709696673,226.52760034162878,-159.7030101058157,-114.80502970952732,15.672314696266241,22.218514403803937,0.0,300.0000000000007,2.1848732210842066,-0.3926990816987246,0.0,-0.09809999999999948,0.0,0.0,0.0,29.42999999999991,0.0
211,1,Target,211.0,1441.730324841943,133142.7211377643,-1008.8605006791915,241.0802163176436,-136.74843492206224,-114.80502970952757,13.420821082770244,23.646678238491084,0.0,300.00000000000136,2.0867732210841616,-0.3926990816987246,0.0,-0.09809999999999926,0.0,0.0,0.0,29.42999999999991,0.0
212,1,Target,212.0,1689.1567645091768,133018.06811366059,-1123.6655303887323,253.31463033064773,-112.47890119414804,-114.80502970952782,11.040274267604483,24.84745810635602,0.0,300.000000000002,1.9886732210841167,-0.3926990816987246,0.0,-0.09809999999999905,0.0,0.0,0.0,29.42999999999991,0.0
213,1,Target,213.0,1947.6024483297715,132918.24803562474,-1238.4705600982757,263.11319754435266,-87.12778220167618,-114.80502970952828,8.55356533812351,25.809307434668252,0.0,300.00000000000324,1.8905732210840718,-0.3926990816987246,0.0,-0.09809999999999865,0.0,0.0,0.0,29.42999999999991,0.0
214,1,Target,214.0,2214.582189834613,132844.22076301128,-1353.275589807819,270.3816959686815,-60.93885163421132,-114.80502970952881,5.98460622545052,26.522977181623695,0.0,300.00000000000455,1.7924732210840268,-0.3926990816987246,0.0,-0.0980999999999982,0.0,0.0,0.0,29.42999999999991,0.0
215,1,Target,215.0,2487.5287399549293,132796.69813427518,-1468.0806195173623,275.0502324885005,-34.163939489163624,-114.80502970952914,3.3580997697898582,26.981604774123394,0.0,300.00000000000546,1.6943732210839864,-0.3926990816987246,0.0,-0.09809999999999792,0.0,0.0,0.0,29.42999999999991,0.0
216,1,Target,216.0,2763.817473418888,132776.13712200813,-1582.8856492269056,277.0739149484522,-7.060510501062391,-114.8050297095294,0.6993021804880294,27.180780097545593,0.0,300.00000000000614,1.5962732210839556,-0.3926990816987246,0.0,-0.09809999999999769,0.0,0.0,0.0,29.42999999999991,0.0
217,1,Target,217.0,3040.791626871711,132782.73543873744,-1697.6906789364489,276.4332838311915,20.110811612212895,-114.80502970952958,-1.9662198248983862,27.11858790296639,0.0,300.0000000000066,1.498173221083925,-0.3926990816987246,0.0,-0.09809999999999755,0.0,0.0,0.0,29.42999999999991,0.0
218,1,Target,218.0,3315.787846032225,132816.42963574504,-1812.4957086459922,273.1344993780536,47.08875027964084,-114.80502970952983,-4.612834867593495,26.795626223978033,0.0,300.0000000000073,1.4000732210838942,-0.3926990816987246,0.0,-0.09809999999999733,0.0,0.0,0.0,29.42999999999991,0.0
219,1,Target,219.0,3586.161796227035,132876.8957131822,-1927.3007383555355,267.2092823528231,73.61388848504313,-114.8050297095304,-7.215093376141535,26.215000626062274,0.0,300.00000000000875,1.3019732210838635,-0.3926990816987246,0.0,-0.09809999999999684,0.0,0.0,0.0,29.42999999999991,0.0
220,1,Target,220.0,3849.3135900341763,132963.552235618,-2042.1057680650788,258.7146090182089,99.43116329378259,-114.80502970953073,-9.74797230687477,25.382294343802762,-5.684341886085971e-12,300.0000000000096,1.2038732210838328,-0.3926990816987246,0.0,-0.09809999999999656,0.0,0.0,0.0,29.42999999999991,0.0
221,1,Target,221.0,4102.712787526675,133075.56592306154,-2156.910797774622,247.73216325810796,124.29231851107338,-114.80502970953103,-12.187115762821747,24.305514593080424,0.0,300.00000000001046,1.105773221083802,-0.3926990816987246,0.0,-0.0980999999999963,0.0,0.0,0.0,29.42999999999991,0.0
222,1,Target,222.0,4343.922728716312,133211.85966369498,-2271.7158274841654,234.36755111398045,147.9582918873963,-114.80502970953123,-14.509069197483322,22.995015574540954,0.0,300.0000000000109,1.0076732210837713,-0.3926990816987246,0.0,-0.09809999999999613,0.0,0.0,0.0,29.42999999999991,0.0
223,1,Target,223.0,4570.623964219387,133371.12287126633,-2386.5208571937087,218.74928528828144,170.20151391590628,-114.80502970953135,-16.69150495122648,21.463398908704416,0.0,300.00000000001125,0.9095732210837406,-0.3926990816987246,0.0,-0.09809999999999602,0.0,0.0,0.0,29.42999999999991,0.0
224,1,Target,224.0,4780.636558837594,133551.82408754964,-2501.325886903252,201.02754937985262,190.80809611683657,-114.80502970953184,-18.713436951759345,19.725392460066793,0.0,300.0000000000125,0.8114732210837099,-0.3926990816987246,0.0,-0.09809999999999561,0.0,0.0,0.0,29.42999999999991,0.0
225,1,Target,225.0,4971.941053585318,133752.2257086856,-2616.1309166127953,181.37275373425553,209.5798877665864,-114.80502970953246,-20.55542251396951,17.797708715538917,0.0,300.00000000001415,0.7133732210836792,-0.3926990816987246,0.0,-0.09809999999999508,0.0,0.0,0.0,29.42999999999991,0.0
226,1,Target,226.0,5142.697884594433,133970.40069379695,-2730.9359463223386,159.97389679584168,226.33638129420436,-114.80502970953262,-22.199749298735878,15.698884078941045,0.0,300.00000000001455,0.6152732210836485,-0.3926990816987246,0.0,-0.09809999999999494,0.0,0.0,0.0,29.42999999999991,0.0
227,1,Target,227.0,5291.265072166701,134204.25109521078,-2845.740976031882,137.03674771862464,240.9164480231782,-114.80502970953307,-23.63060563292709,13.449100626884,0.0,300.0000000000158,0.5171732210836177,-0.3926990816987246,0.0,-0.09809999999999455,0.0,0.0,0.0,29.42999999999991,0.0
228,1,Target,228.0,5416.214009877532,134451.52823210275,-2960.5460057414252,112.78186771176827,253.17988756780895,-114.80502970953344,-24.834232552768604,11.069992040010966,0.0,300.0000000000167,0.419073221083587,-0.3926990816987246,0.0,-0.09809999999999423,0.0,0.0,0.0,29.42999999999991,0.0
229,1,Target,229.0,5516.343201904917,134709.85431357435,-3075.3510354509685,87.4424891462374,263.00877598535305,-114.80502970953367,-25.799056108596847,8.584435575877327,0.0,300.0000000000173,0.3209732210835563,-0.3926990816987246,0.0,-0.09809999999999405,0.0,0.0,0.0,29.42999999999991,0.0
230,1,Target,230.0,5590.689816486633,134976.74530324026,-3190.156065160512,61.26227281688849,270.30859972023285,-114.80502970953401,-26.51579865874392,6.016332083589547,0.0,300.0000000000182,0.22287322108352559,-0.3926990816987246,0.0,-0.09809999999999376,0.0,0.0,0.0,29.42999999999991,0.0
231,1,Target,231.0,5638.538944409062,135249.63480545976,-3304.961094870055,34.49296492593477,275.00916443642916,-114.80502970953458,-26.977568082344682,3.390376175790052,0.0,300.00000000001967,0.12477322108349487,-0.3926990816987246,0.0,-0.09809999999999328,0.0,0.0,0.0,29.42999999999991,0.0
232,1,Target,232.0,5659.430473498881,135525.8987435277,-3419.7661245795985,7.391976317986642,277.0652699988215,-114.8050297095352,-27.179924053276522,0.731818767849956,0.0,300.0000000000213,0.02667322108346415,-0.3926990816987246,0.0,-0.09809999999999273,0.0,0.0,0.0,29.42999999999991,0.0
233,1,Target,233.0,5660.4170659851625,135803.0539125731,-3534.5711542891418,0.0,277.1638597534061,-114.80502970953538,0.0,0.0,0.0,300.00000000002177,0.0,-0.3926990816987246,0.0,0.0,0.0,0.0,0.0,0.0,0.0
234,1,Target,234.0,5660.4170659851625,136080.21777232672,-3649.376183998685,0.0,277.1638597534061,-114.80502970953538,0.0,0.0,0.0,300.00000000002177,0.0,-0.3926990816987246,0.0,0.0,0.0,0.0,0.0,0.0,0.0
235,1,Target,235.0,5660.4170659851625,136357.38163208036,-3764.1812137082284,0.0,277.1638597534061,-114.80502970953538,0.0,0.0,0.0,300.00000000002177,0.0,-0.3926990816987246,0.0,0.0,0.0,0.0,0.0,0.0,0.0
236,1,Target,236.0,5660.4170659851625,136634.545491834,-3878.9862434177717,0.0,277.1638597534061,-114.80502970953538,0.0,0.0,0.0,300.00000000002177,0.0,-0.3926990816987246,0.0,0.0,0.0,0.0,0.0,0.0,0.0
237,1,Target,237.0,5660.4170659851625,136911.70935158763,-3993.791273127315,0.0,277.1638597534061,-114.80502970953538,0.0,0.0,0.0,300.00000000002177,0.0,-0.3926990816987246,0.0,0.0,0.0,0.0,0.0,0.0,0.0
238,1,Target,238.0,5660.4170659851625,137188.87321134127,-4108.59630283685,0.0,277.1638597534061,-114.80502970953538,0.0,0.0,0.0,300.00000000002177,0.0,-0.3926990816987246,0.0,0.0,0.0,0.0,0.0,0.0,0.0
239,1,Target,239.0,5660.4170659851625,137466.0370710949,-4223.401332546317,0.0,277.1638597534061,-114.80502970953538,0.0,0.0,0.0,300.00000000002177,0.0,-0.3926990816987246,0.0,0.0,0.0,0.0,0.0,0.0,0.0
240,1,Target,240.0,5660.4170659851625,137743.20093084854,-4338.2063622557835,0.0,277.1638597534061,-114.80502970953538,0.0,0.0,0.0,300.00000000002177,0.0,-0.3926990816987246,0.0,0.0,0.0,0.0,0.0,0.0,0.0
241,1,Target,241.0,5660.4170659851625,138020.36479060218,-4453.01139196525,0.0,277.1638597534061,-114.80502970953538,0.0,0.0,0.0,300.00000000002177,0.0,-0.3926990816987246,0.0,0.0,0.0,0.0,0.0,0.0,0.0
242,1,Target,242.0,5660.4170659851625,138297.52865035582,-4567.816421674717,0.0,277.1638597534061,-114.80502970953538,0.0,0.0,0.0,300.00000000002177,0.0,-0.3926990816987246,0.0,0.0,0.0,0.0,0.0,0.0,0.0
243,1,Target,243.0,5660.4170659851625,138574.69251010945,-4682.621451384184,0.0,277.1638597534061,-114.80502970953538,0.0,0.0,0.0,300.00000000002177,0.0,-0.3926990816987246,0.0,0.0,0.0,0.0,0.0,0.0,0.0
244,1,Target,244.0,5660.4170659851625,138851.8563698631,-4797.426481093651,0.0,277.1638597534061,-114.80502970953538,0.0,0.0,0.0,300.00000000002177,0.0,-0.3926990816987246,0.0,0.0,0.0,0.0,0.0,0.0,0.0
245,1,Target,245.0,5660.4170659851625,139129.02022961673,-4912.231510803118,0.0,277.1638597534061,-114.80502970953538,0.0,0.0,0.0,300.00000000002177,0.0,-0.3926990816987246,0.0,0.0,0.0,0.0,0.0,0.0,0.0
246,1,Target,246.0,5660.4170659851625,139406.18408937036,-5027.036540512585,0.0,277.1638597534061,-114.80502970953538,0.0,0.0,0.0,300.00000000002177,0.0,-0.3926990816987246,0.0,0.0,0.0,0.0,0.0,0.0,0.0
247,1,Target,247.0,5660.4170659851625,139683.347949124,-5141.841570222052,0.0,277.1638597534061,-114.80502970953538,0.0,0.0,0.0,300.00000000002177,0.0,-0.3926990816987246,0.0,0.0,0.0,0.0,0.0,0.0,0.0
248,1,Target,248.0,5660.4170659851625,139960.51180887764,-5256.646599931519,0.0,277.1638597534061,-114.80502970953538,0.0,0.0,0.0,300.00000000002177,0.0,-0.3926990816987246,0.0,0.0,0.0,0.0,0.0,0.0,0.0
249,1,Target,249.0,5660.4170659851625,140237.67566863127,-5371.451629640986,0.0,277.1638597534061,-114.80502970953538,0.0,0.0,0.0,300.00000000002177,0.0,-0.3926990816987246,0.0,0.0,0.0,0.0,0.0,0.0,0.0
250,1,Target,250.0,5660.4170659851625,140514.8395283849,-5486.2566593504525,0.0,277.1638597534061,-114.80502970953538,0.0,0.0,0.0,300.00000000002177,0.0,-0.3926990816987246,0.0,0.0,0.0,0.0,0.0,0.0,0.0
251,1,Target,251.0,5660.4170659851625,140792.00338813855,-5601.061689059919,0.0,277.1638597534061,-114.80502970953538,0.0,0.0,0.0,300.00000000002177,0.0,-0.3926990816987246,0.0,0.0,0.0,0.0,0.0,0.0,0.0
252,1,Target,252.0,5660.4170659851625,141069.16724789218,-5715.866718769386,0.0,277.1638597534061,-114.80502970953538,0.0,0.0,0.0,300.00000000002177,0.0,-0.3926990816987246,0.0,0.0,0.0,0.0,0.0,0.0,0.0
253,1,Target,253.0,5660.4170659851625,141346.33110764582,-5830.671748478853,0.0,277.1638597534061,-114.80502970953538,0.0,0.0,0.0,300.00000000002177,0.0,-0.3926990816987246,0.0,0.0,0.0,0.0,0.0,0.0,0.0
254,1,Target,254.0,5660.4170659851625,141623.49496739946,-5945.47677818832,0.0,277.1638597534061,-114.80502970953538,0.0,0.0,0.0,300.00000000002177,0.0,-0.3926990816987246,0.0,0.0,0.0,0.0,0.0,0.0,0.0
255,1,Target,255.0,5660.4170659851625,141900.6588271531,-6060.281807897787,0.0,277.1638597534061,-114.80502970953538,0.0,0.0,0.0,300.00000000002177,0.0,-0.3926990816987246,0.0,0.0,0.0,0.0,0.0,0.0,0.0
256,1,Target,256.0,5660.4170659851625,142177.82268690673,-6175.086837607254,0.0,277.1638597534061,-114.80502970953538,0.0,0.0,0.0,300.00000000002177,0.0,-0.3926990816987246,0.0,0.0,0.0,0.0,0.0,0.0,0.0
257,1,Target,257.0,5660.4170659851625,142454.98654666037,-6289.891867316721,0.0,277.1638597534061,-114.80502970953538,0.0,0.0,0.0,300.00000000002177,0.0,-0.3926990816987246,0.0,0.0,0.0,0.0,0.0,0.0,0.0
258,1,Target,258.0,5660.4170659851625,142732.150406414,-6404.696897026188,0.0,277.1638597534061,-114.80502970953538,0.0,0.0,0.0,300.00000000002177,0.0,-0.3926990816987246,0.0,0.0,0.0,0.0,0.0,0.0,0.0
259,1,Target,259.0,5660.4170659851625,143009.31426616764,-6519.501926735655,0.0,277.1638597534061,-114.80502970953538,0.0,0.0,0.0,300.00000000002177,0.0,-0.3926990816987246,0.0,0.0,0.0,0.0,0.0,0.0,0.0
260,1,Target,260.0,5660.4170659851625,143286.47812592128,-6634.306956445122,0.0,277.1638597534061,-114.80502970953538,0.0,0.0,0.0,300.00000000002177,0.0,-0.3926990816987246,0.0,0.0,0.0,0.0,0.0,0.0,0.0
261,1,Target,261.0,5660.4170659851625,143563.6419856749,-6749.1119861545885,0.0,277.1638597534061,-114.80502970953538,0.0,0.0,0.0,300.00000000002177,0.0,-0.3926990816987246,0.0,0.0,0.0,0.0,0.0,0.0,0.0
262,1,Target,262.0,5660.4170659851625,143840.80584542855,-6863.917015864055,0.0,277.1638597534061,-114.80502970953538,0.0,0.0,0.0,300.00000000002177,0.0,-0.3926990816987246,0.0,0.0,0.0,0.0,0.0,0.0,0.0
263,1,Target,263.0,5660.4170659851625,144117.9697051822,-6978.722045573522,0.0,277.1638597534061,-114.80502970953538,0.0,0.0,0.0,300.00000000002177,0.0,-0.3926990816987246,0.0,0.0,0.0,0.0,0.0,0.0,0.0
264,1,Target,264.0,5660.4170659851625,144395.13356493582,-7093.527075282989,0.0,277.1638597534061,-114.80502970953538,0.0,0.0,0.0,300.00000000002177,0.0,-0.3926990816987246,0.0,0.0,0.0,0.0,0.0,0.0,0.0
265,1,Target,265.0,5660.4170659851625,144672.29742468946,-7208.332104992456,0.0,277.1638597534061,-114.80502970953538,0.0,0.0,0.0,300.00000000002177,0.0,-0.3926990816987246,0.0,0.0,0.0,0.0,0.0,0.0,0.0
266,1,Target,266.0,5660.4170659851625,144949.4612844431,-7323.137134701923,0.0,277.1638597534061,-114.80502970953538,0.0,0.0,0.0,300.00000000002177,0.0,-0.3926990816987246,0.0,0.0,0.0,0.0,0.0,0.0,0.0
267,1,Target,267.0,5660.4170659851625,145226.62514419673,-7437.94216441139,0.0,277.1638597534061,-114.80502970953538,0.0,0.0,0.0,300.00000000002177,0.0,-0.3926990816987246,0.0,0.0,0.0,0.0,0.0,0.0,0.0
268,1,Target,268.0,5660.4170659851625,145503.78900395037,-7552.747194120857,0.0,277.1638597534061,-114.80502970953538,0.0,0.0,0.0,300.00000000002177,0.0,-0.3926990816987246,0.0,0.0,0.0,0.0,0.0,0.0,0.0
269,1,Target,269.0,5660.4170659851625,145780.952863704,-7667.552223830324,0.0,277.1638597534061,-114.80502970953538,0.0,0.0,0.0,300.00000000002177,0.0,-0.3926990816987246,0.0,0.0,0.0,0.0,0.0,0.0,0.0
270,1,Target,270.0,5660.4170659851625,146058.11672345764,-7782.357253539791,0.0,277.1638597534061,-114.80502970953538,0.0,0.0,0.0,300.00000000002177,0.0,-0.3926990816987246,0.0,0.0,0.0,0.0,0.0,0.0,0.0
271,1,Target,271.0,5660.4170659851625,146335.28058321128,-7897.162283249258,0.0,277.1638597534061,-114.80502970953538,0.0,0.0,0.0,300.00000000002177,0.0,-0.3926990816987246,0.0,0.0,0.0,0.0,0.0,0.0,0.0
272,1,Target,272.0,5660.4170659851625,146612.44444296492,-8011.9673129587245,0.0,277.1638597534061,-114.80502970953538,0.0,0.0,0.0,300.00000000002177,0.0,-0.3926990816987246,0.0,0.0,0.0,0.0,0.0,0.0,0.0
273,1,Target,273.0,5660.4170659851625,146889.60830271855,-8126.772342668191,0.0,277.1638597534061,-114.80502970953538,0.0,0.0,0.0,300.00000000002177,0.0,-0.3926990816987246,0.0,0.0,0.0,0.0,0.0,0.0,0.0
274,1,Target,274.0,5660.4170659851625,147166.7721624722,-8241.577372377724,0.0,277.1638597534061,-114.80502970953538,0.0,0.0,0.0,300.00000000002177,0.0,-0.3926990816987246,0.0,0.0,0.0,0.0,0.0,0.0,0.0
275,1,Target,275.0,5660.4170659851625,147443.93602222583,-8356.382402087344,0.0,277.1638597534061,-114.80502970953538,0.0,0.0,0.0,300.00000000002177,0.0,-0.3926990816987246,0.0,0.0,0.0,0.0,0.0,0.0,0.0
276,1,Target,276.0,5660.4170659851625,147721.09988197946,-8471.187431796963,0.0,277.1638597534061,-114.80502970953538,0.0,0.0,0.0,300.00000000002177,0.0,-0.3926990816987246,0.0,0.0,0.0,0.0,0.0,0.0,0.0
277,1,Target,277.0,5660.4170659851625,147998.2637417331,-8585.992461506583,0.0,277.1638597534061,-114.80502970953538,0.0,0.0,0.0,300.00000000002177,0.0,-0.3926990816987246,0.0,0.0,0.0,0.0,0.0,0.0,0.0
278,1,Target,278.0,5660.4170659851625,148275.42760148674,-8700.797491216203,0.0,277.1638597534061,-114.80502970953538,0.0,0.0,0.0,300.00000000002177,0.0,-0.3926990816987246,0.0,0.0,0.0,0.0,0.0,0.0,0.0
279,1,Target,279.0,5660.4170659851625,148552.59146124037,-8815.602520925822,0.0,277.1638597534061,-114.80502970953538,0.0,0.0,0.0,300.00000000002177,0.0,-0.3926990816987246,0.0,0.0,0.0,0.0,0.0,0.0,0.0
280,1,Target,280.0,5660.4170659851625,148829.755320994,-8930.407550635442,0.0,277.1638597534061,-114.80502970953538,0.0,0.0,0.0,300.00000000002177,0.0,-0.3926990816987246,0.0,0.0,0.0,0.0,0.0,0.0,0.0
281,1,Target,281.0,5660.4170659851625,149106.91918074765,-9045.212580345062,0.0,277.1638597534061,-114.80502970953538,0.0,0.0,0.0,300.00000000002177,0.0,-0.3926990816987246,0.0,0.0,0.0,0.0,0.0,0.0,0.0
282,1,Target,282.0,5660.4170659851625,149384.08304050128,-9160.017610054681,0.0,277.1638597534061,-114.80502970953538,0.0,0.0,0.0,300.00000000002177,0.0,-0.3926990816987246,0.0,0.0,0.0,0.0,0.0,0.0,0.0
283,1,Target,283.0,5660.4170659851625,149661.24690025492,-9274.822639764301,0.0,277.1638597534061,-114.80502970953538,0.0,0.0,0.0,300.00000000002177,0.0,-0.3926990816987246,0.0,0.0,0.0,0.0,0.0,0.0,0.0
284,1,Target,284.0,5660.4170659851625,149938.41076000856,-9389.62766947392,0.0,277.1638597534061,-114.80502970953538,0.0,0.0,0.0,300.00000000002177,0.0,-0.3926990816987246,0.0,0.0,0.0,0.0,0.0,0.0,0.0
285,1,Target,285.0,5660.4170659851625,150215.5746197622,-9504.43269918354,0.0,277.1638597534061,-114.80502970953538,0.0,0.0,0.0,300.00000000002177,0.0,-0.3926990816987246,0.0,0.0,0.0,0.0,0.0,0.0,0.0
286,1,Target,286.0,5660.4170659851625,150492.73847951583,-9619.23772889316,0.0,277.1638597534061,-114.80502970953538,0.0,0.0,0.0,300.00000000002177,0.0,-0.3926990816987246,0.0,0.0,0.0,0.0,0.0,0.0,0.0
287,1,Target,287.0,5660.4170659851625,150769.90233926947,-9734.04275860278,0.0,277.1638597534061,-114.80502970953538,0.0,0.0,0.0,300.00000000002177,0.0,-0.3926990816987246,0.0,0.0,0.0,0.0,0.0,0.0,0.0
288,1,Target,288.0,5660.4170659851625,151047.0661990231,-9848.8477883124,0.0,277.1638597534061,-114.80502970953538,0.0,0.0,0.0,300.00000000002177,0.0,-0.3926990816987246,0.0,0.0,0.0,0.0,0.0,0.0,0.0
289,1,Target,289.0,5660.4170659851625,151324.23005877674,-9963.65281802202,0.0,277.1638597534061,-114.80502970953538,0.0,0.0,0.0,300.00000000002177,0.0,-0.3926990816987246,0.0,0.0,0.0,0.0,0.0,0.0,0.0
290,1,Target,290.0,5660.4170659851625,151601.39391853038,-10078.457847731639,0.0,277.1638597534061,-114.80502970953538,0.0,0.0,0.0,300.00000000002177,0.0,-0.3926990816987246,0.0,0.0,0.0,0.0,0.0,0.0,0.0
291,1,Target,291.0,5660.4170659851625,151878.557778284,-10193.262877441259,0.0,277.1638597534061,-114.80502970953538,0.0,0.0,0.0,300.00000000002177,0.0,-0.3926990816987246,0.0,0.0,0.0,0.0,0.0,0.0,0.0
292,1,Target,292.0,5660.4170659851625,152155.72163803765,-10308.067907150878,0.0,277.1638597534061,-114.80502970953538,0.0,0.0,0.0,300.00000000002177,0.0,-0.3926990816987246,0.0,0.0,0.0,0.0,0.0,0.0,0.0
293,1,Target,293.0,5660.4170659851625,152432.88549779129,-10422.872936860498,0.0,277.1638597534061,-114.80502970953538,0.0,0.0,0.0,300.00000000002177,0.0,-0.3926990816987246,0.0,0.0,0.0,0.0,0.0,0.0,0.0
294,1,Target,294.0,5660.4170659851625,152710.04935754492,-10537.677966570118,0.0,277.1638597534061,-114.80502970953538,0.0,0.0,0.0,300.00000000002177,0.0,-0.3926990816987246,0.0,0.0,0.0,0.0,0.0,0.0,0.0
295,1,Target,295.0,5660.4170659851625,152987.21321729856,-10652.482996279738,0.0,277.1638597534061,-114.80502970953538,0.0,0.0,0.0,300.00000000002177,0.0,-0.3926990816987246,0.0,0.0,0.0,0.0,0.0,0.0,0.0
296,1,Target,296.0,5660.4170659851625,153264.3770770522,-10767.288025989357,0.0,277.1638597534061,-114.80502970953538,0.0,0.0,0.0,300.00000000002177,0.0,-0.3926990816987246,0.0,0.0,0.0,0.0,0.0,0.0,0.0
297,1,Target,297.0,5660.4170659851625,153541.54093680583,-10882.093055698977,0.0,277.1638597534061,-114.80502970953538,0.0,0.0,0.0,300.00000000002177,0.0,-0.3926990816987246,0.0,0.0,0.0,0.0,0.0,0.0,0.0
298,1,Target,298.0,5660.4170659851625,153818.70479655947,-10996.898085408597,0.0,277.1638597534061,-114.80502970953538,0.0,0.0,0.0,300.00000000002177,0.0,-0.3926990816987246,0.0,0.0,0.0,0.0,0.0,0.0,0.0
299,1,Target,299.0,5660.4170659851625,154095.8686563131,-11111.703115118216,0.0,277.1638597534061,-114.80502970953538,0.0,0.0,0.0,300.00000000002177,0.0,-0.3926990816987246,0.0,0.0,0.0,0.0,0.0,0.0,0.0
300,1,Target,300.0,5660.4170659851625,154373.03251606674,-11226.508144827836,0.0,277.1638597534061,-114.80502970953538,0.0,0.0,0.0,300.00000000002177,0.0,-0.3926990816987246,0.0,0.0,0.0,0.0,0.0,0.0,0.0
301,1,Target,301.0,5660.4170659851625,154650.19637582038,-11341.313174537456,0.0,277.1638597534061,-114.80502970953538,0.0,0.0,0.0,300.00000000002177,0.0,-0.3926990816987246,0.0,0.0,0.0,0.0,0.0,0.0,0.0
302,1,Target,302.0,5660.4170659851625,154927.36023557401,-11456.118204247075,0.0,277.1638597534061,-114.80502970953538,0.0,0.0,0.0,300.00000000002177,0.0,-0.3926990816987246,0.0,0.0,0.0,0.0,0.0,0.0,0.0
303,1,Target,303.0,5660.4170659851625,155204.52409532765,-11570.923233956695,0.0,277.1638597534061,-114.80502970953538,0.0,0.0,0.0,300.00000000002177,0.0,-0.3926990816987246,0.0,0.0,0.0,0.0,0.0,0.0,0.0
304,1,Target,304.0,5660.4170659851625,155481.6879550813,-11685.728263666315,0.0,277.1638597534061,-114.80502970953538,0.0,0.0,0.0,300.00000000002177,0.0,-0.3926990816987246,0.0,0.0,0.0,0.0,0.0,0.0,0.0
305,1,Target,305.0,5660.4170659851625,155758.85181483492,-11800.533293375935,0.0,277.1638597534061,-114.80502970953538,0.0,0.0,0.0,300.00000000002177,0.0,-0.3926990816987246,0.0,0.0,0.0,0.0,0.0,0.0,0.0
306,1,Target,306.0,5660.4170659851625,156036.01567458856,-11915.338323085554,0.0,277.1638597534061,-114.80502970953538,0.0,0.0,0.0,300.00000000002177,0.0,-0.3926990816987246,0.0,0.0,0.0,0.0,0.0,0.0,0.0
307,1,Target,307.0,5660.4170659851625,156313.1795343422,-12030.143352795174,0.0,277.1638597534061,-114.80502970953538,0.0,0.0,0.0,300.00000000002177,0.0,-0.3926990816987246,0.0,0.0,0.0,0.0,0.0,0.0,0.0
308,1,Target,308.0,5660.4170659851625,156590.34339409583,-12144.948382504794,0.0,277.1638597534061,-114.80502970953538,0.0,0.0,0.0,300.00000000002177,0.0,-0.3926990816987246,0.0,0.0,0.0,0.0,0.0,0.0,0.0
309,1,Target,309.0,5660.4170659851625,156867.50725384947,-12259.753412214413,0.0,277.1638597534061,-114.80502970953538,0.0,0.0,0.0,300.00000000002177,0.0,-0.3926990816987246,0.0,0.0,0.0,0.0,0.0,0.0,0.0
310,1,Target,310.0,5660.4170659851625,157144.6711136031,-12374.558441924033,0.0,277.1638597534061,-114.80502970953538,0.0,0.0,0.0,300.00000000002177,0.0,-0.3926990816987246,0.0,0.0,0.0,0.0,0.0,0.0,0.0
311,1,Target,311.0,5660.4170659851625,157421.83497335674,-12489.363471633653,0.0,277.1638597534061,-114.80502970953538,0.0,0.0,0.0,300.00000000002177,0.0,-0.3926990816987246,0.0,0.0,0.0,0.0,0.0,0.0,0.0
312,1,Target,312.0,5660.4170659851625,157698.99883311038,-12604.168501343273,0.0,277.1638597534061,-114.80502970953538,0.0,0.0,0.0,300.00000000002177,0.0,-0.3926990816987246,0.0,0.0,0.0,0.0,0.0,0.0,0.0
313,1,Target,313.0,5660.4170659851625,157976.16269286402,-12718.973531052892,0.0,277.1638597534061,-114.80502970953538,0.0,0.0,0.0,300.00000000002177,0.0,-0.3926990816987246,0.0,0.0,0.0,0.0,0.0,0.0,0.0
314,1,Target,314.0,5660.4170659851625,158253.32655261765,-12833.778560762512,0.0,277.1638597534061,-114.80502970953538,0.0,0.0,0.0,300.00000000002177,0.0,-0.3926990816987246,0.0,0.0,0.0,0.0,0.0,0.0,0.0
315,1,Target,315.0,5660.4170659851625,158530.4904123713,-12948.583590472132,0.0,277.1638597534061,-114.80502970953538,0.0,0.0,0.0,300.00000000002177,0.0,-0.3926990816987246,0.0,0.0,0.0,0.0,0.0,0.0,0.0
316,1,Target,316.0,5660.4170659851625,158807.65427212493,-13063.388620181751,0.0,277.1638597534061,-114.80502970953538,0.0,0.0,0.0,300.00000000002177,0.0,-0.3926990816987246,0.0,0.0,0.0,0.0,0.0,0.0,0.0
317,1,Target,317.0,5660.4170659851625,159084.81813187856,-13178.193649891371,0.0,277.1638597534061,-114.80502970953538,0.0,0.0,0.0,300.00000000002177,0.0,-0.3926990816987246,0.0,0.0,0.0,0.0,0.0,0.0,0.0
318,1,Target,318.0,5660.4170659851625,159361.9819916322,-13292.99867960099,0.0,277.1638597534061,-114.80502970953538,0.0,0.0,0.0,300.00000000002177,0.0,-0.3926990816987246,0.0,0.0,0.0,0.0,0.0,0.0,0.0
319,1,Target,319.0,5660.4170659851625,159639.14585138584,-13407.80370931061,0.0,277.1638597534061,-114.80502970953538,0.0,0.0,0.0,300.00000000002177,0.0,-0.3926990816987246,0.0,0.0,0.0,0.0,0.0,0.0,0.0
