,id,name,time,x,y,z,dx,dy,dz,ddx,ddy,ddz,speed,yaw,pitch,roll,yaw_rate,pitch_rate,roll_rate,axial_accel,lateral_accel,vertical_accel
0,1,Target,0.0,6384271.506206457,0.0,221453.54027814194,10.469849010750291,3.6739403974420595e-14,-299.8172481057287,0.0,0.0,0.0,300.0,3.141592653589793,0.0,0.0,0.0,0.0,0.0,0.0,0.0,0.0
1,1,Target,0.1,6384272.553124024,3.673940683607077e-15,221423.5585509801,10.468502423465686,3.673940969748833e-14,-299.81729512656517,0.0,0.0,0.0,300.0,3.141592653589793,0.0,0.0,0.0,0.0,0.0,0.0,0.0,0.0
2,1,Target,0.2,6384273.599899844,7.347881969560716e-15,221393.5768188693,10.467084962933416,3.6739415720178574e-14,-299.81734461564884,0.0,0.0,0.0,300.0,3.141592653589793,0.0,0.0,0.0,0.0,0.0,0.0,0.0,0.0
3,1,Target,0.3,6384274.646533931,1.1021823857697689e-14,221363.59508181005,10.465667502162486,3.673942174123642e-14,-299.81739409803123,0.0,0.0,0.0,300.0,3.141592653589793,0.0,0.0,0.0,0.0,0.0,0.0,0.0,0.0
4,1,Target,0.4,6384275.693026271,1.4695766347854743e-14,221333.61333980257,10.46425004115294,3.6739427760661904e-14,-299.8174435737126,0.0,0.0,0.0,300.00000000000017,3.141592653589793,0.0,0.0,0.0,0.0,0.0,0.0,0.0,0.0
5,1,Target,0.5,6384276.73937686,1.8369709439868642e-14,221303.631592848,10.462832579904823,3.673943377845497e-14,-299.81749304269255,0.0,0.0,0.0,300.00000000000017,3.141592653589793,0.0,0.0,0.0,0.0,0.0,0.0,0.0,0.0
6,1,Target,0.6,6384277.785585701,2.204365313357615e-14,221273.6498409471,10.461415118418177,3.673943979461565e-14,-299.81754250497124,0.0,0.0,0.0,300.00000000000017,3.141592653589793,0.0,0.0,0.0,0.0,0.0,0.0,0.0,0.0
7,1,Target,0.7000000000000001,6384278.831652797,2.5717597428814022e-14,221243.6680841,10.459997656693005,3.673944580914393e-14,-299.8175919605487,0.0,0.0,0.0,300.00000000000017,3.141592653589793,0.0,0.0,0.0,0.0,0.0,0.0,0.0,0.0
8,1,Target,0.8,6384279.877578152,2.939154232541905e-14,221213.6863223082,10.458580194729365,3.673945182203982e-14,-299.81764140942494,0.0,0.0,0.0,300.00000000000017,3.141592653589793,0.0,0.0,0.0,0.0,0.0,0.0,0.0,0.0
9,1,Target,0.9,6384280.923361752,3.306548782322794e-14,221183.70455557175,10.457162732527287,3.673945783330331e-14,-299.8176908515999,0.0,0.0,0.0,300.0000000000001,3.141592653589793,0.0,0.0,0.0,0.0,0.0,0.0,0.0,0.0
10,1,Target,1.0,6384281.969003607,3.673943392207748e-14,221153.7227838909,10.45574527008677,3.6739463842934403e-14,-299.8177402870735,0.0,0.0,0.0,300.0,3.141592653589793,0.0,0.0,0.0,0.0,0.0,0.0,0.0,0.0
11,1,Target,1.1,6384283.014503723,4.041338062180444e-14,221123.74100726692,10.454327807407857,3.673946985093312e-14,-299.817789715846,0.0,0.0,0.0,300.0,3.141592653589793,0.0,0.0,0.0,0.0,0.0,0.0,0.0,0.0
12,1,Target,1.2,6384284.059862094,4.408732792224557e-14,221093.75922570057,10.452910344490608,3.673947585729946e-14,-299.8178391379174,0.0,0.0,0.0,300.00000000000017,3.141592653589793,0.0,0.0,0.0,0.0,0.0,0.0,0.0,0.0
13,1,Target,1.3,6384285.105078712,4.776127582323761e-14,221063.77743919226,10.451492881335046,3.673948186203341e-14,-299.81788855328756,0.0,0.0,0.0,300.0000000000003,3.141592653589793,0.0,0.0,0.0,0.0,0.0,0.0,0.0,0.0
14,1,Target,1.4000000000000001,6384286.150153587,5.1435224324617356e-14,221033.79564774316,10.450075417941212,3.673948786513497e-14,-299.81793796195643,0.0,0.0,0.0,300.00000000000034,3.141592653589793,0.0,0.0,0.0,0.0,0.0,0.0,0.0,0.0
15,1,Target,1.5,6384287.195086713,5.5109173426221555e-14,221003.8138513536,10.448657954309128,3.673949386660412e-14,-299.8179873639239,0.0,0.0,0.0,300.00000000000034,3.141592653589793,0.0,0.0,0.0,0.0,0.0,0.0,0.0,0.0
16,1,Target,1.6,6384288.239878095,5.878312312788701e-14,220973.83205002404,10.447240490438816,3.6739499866440887e-14,-299.81803675919025,0.0,0.0,0.0,300.00000000000034,3.141592653589793,0.0,0.0,0.0,0.0,0.0,0.0,0.0,0.0
17,1,Target,1.7,6384289.284527727,6.24570734294504e-14,220943.8502437552,10.445823026330311,3.6739505864645255e-14,-299.81808614775525,0.0,0.0,0.0,300.00000000000034,3.141592653589793,0.0,0.0,0.0,0.0,0.0,0.0,0.0,0.0
18,1,Target,1.8,6384290.329035608,6.61310243307485e-14,220913.86843254755,10.444405561983649,3.673951186121724e-14,-299.81813552961904,0.0,0.0,0.0,300.00000000000034,3.141592653589793,0.0,0.0,0.0,0.0,0.0,0.0,0.0,0.0
19,1,Target,1.9000000000000001,6384291.373401751,6.980497583161821e-14,220883.8866164023,10.442988097398862,3.673951785615685e-14,-299.81818490478173,0.0,0.0,0.0,300.0000000000005,3.141592653589793,0.0,0.0,0.0,0.0,0.0,0.0,0.0,0.0
20,1,Target,2.0,6384292.417626141,7.34789279318961e-14,220853.90479532006,10.441570632576004,3.673952384946407e-14,-299.8182342732432,0.0,0.0,0.0,300.0000000000007,3.141592653589793,0.0,0.0,0.0,0.0,0.0,0.0,0.0,0.0
21,1,Target,2.1,6384293.461708786,7.715288063141899e-14,220823.92296930117,10.44015316751507,3.673952984113888e-14,-299.8182836350032,0.0,0.0,0.0,300.0000000000007,3.141592653589793,0.0,0.0,0.0,0.0,0.0,0.0,0.0,0.0
22,1,Target,2.2,6384294.505649697,8.082683393002378e-14,220793.94113834674,10.438735702216103,3.6739535831181303e-14,-299.818332990062,0.0,0.0,0.0,300.0000000000007,3.141592653589793,0.0,0.0,0.0,0.0,0.0,0.0,0.0,0.0
23,1,Target,2.3000000000000003,6384295.549448851,8.450078782754696e-14,220763.95930245682,10.437318236679145,3.673954181959135e-14,-299.81838233841955,0.0,0.0,0.0,300.00000000000074,3.141592653589793,0.0,0.0,0.0,0.0,0.0,0.0,0.0,0.0
24,1,Target,2.4,6384296.593106258,8.817474232382543e-14,220733.97746163246,10.435900770904222,3.673954780636898e-14,-299.8184316800757,0.0,0.0,0.0,300.0000000000007,3.141592653589793,0.0,0.0,0.0,0.0,0.0,0.0,0.0,0.0
25,1,Target,2.5,6384297.636621926,9.18486974186961e-14,220703.99561587448,10.434483304891371,3.673955379151423e-14,-299.8184810150308,0.0,0.0,0.0,300.00000000000074,3.141592653589793,0.0,0.0,0.0,0.0,0.0,0.0,0.0,0.0
26,1,Target,2.6,6384298.679995839,9.552265311199547e-14,220674.01376518316,10.433065838640625,3.673955977502709e-14,-299.8185303432844,0.0,0.0,0.0,300.0000000000006,3.141592653589793,0.0,0.0,0.0,0.0,0.0,0.0,0.0,0.0
27,1,Target,2.7,6384299.723228003,9.919660940356041e-14,220644.03190955953,10.431648372152026,3.673956575690757e-14,-299.81857966483693,0.0,0.0,0.0,300.0000000000007,3.141592653589793,0.0,0.0,0.0,0.0,0.0,0.0,0.0,0.0
28,1,Target,2.8000000000000003,6384300.76631842,1.0287056629322777e-13,220614.05004900385,10.43023090542558,3.673957173715564e-14,-299.81862897968807,0.0,0.0,0.0,300.00000000000057,3.141592653589793,0.0,0.0,0.0,0.0,0.0,0.0,0.0,0.0
29,1,Target,2.9,6384301.809267092,1.0654452378083418e-13,220584.06818351714,10.428813438461347,3.6739577715771374e-14,-299.8186782878383,0.0,0.0,0.0,300.00000000000085,3.141592653589793,0.0,0.0,0.0,0.0,0.0,0.0,0.0,0.0
30,1,Target,3.0,6384302.852074021,1.102184818662166e-13,220554.0863131002,10.427395971259346,3.6739583692754697e-14,-299.8187275892871,0.0,0.0,0.0,300.00000000000097,3.141592653589793,0.0,0.0,0.0,0.0,0.0,0.0,0.0,0.0
31,1,Target,3.1,6384303.894739204,1.1389244054921167e-13,220524.10443775333,10.425978503819596,3.6739589668105613e-14,-299.8187768840345,0.0,0.0,0.0,300.0000000000009,3.141592653589793,0.0,0.0,0.0,0.0,0.0,0.0,0.0,0.0
32,1,Target,3.2,6384304.937262641,1.1756639982965617e-13,220494.12255747744,10.424561036142144,3.673959564182413e-14,-299.81882617208055,0.0,0.0,0.0,300.00000000000085,3.141592653589793,0.0,0.0,0.0,0.0,0.0,0.0,0.0,0.0
33,1,Target,3.3000000000000003,6384305.979644327,1.2124035970738663e-13,220464.1406722732,10.423143568227037,3.6739601613910274e-14,-299.81887545342545,0.0,0.0,0.0,300.00000000000085,3.141592653589793,0.0,0.0,0.0,0.0,0.0,0.0,0.0,0.0
34,1,Target,3.4,6384307.021884264,1.2491432018224002e-13,220434.15878214102,10.421726100074286,3.6739607584364024e-14,-299.8189247280691,0.0,0.0,0.0,300.00000000000085,3.141592653589793,0.0,0.0,0.0,0.0,0.0,0.0,0.0,0.0
35,1,Target,3.5,6384308.0639824625,1.2858828125405328e-13,220404.17688708194,10.420308631683922,3.6739613553185394e-14,-299.8189739960114,0.0,0.0,0.0,300.00000000000085,3.141592653589793,0.0,0.0,0.0,0.0,0.0,0.0,0.0,0.0
36,1,Target,3.6,6384309.105938911,1.3226224292266287e-13,220374.19498709618,10.418891163055983,3.673961952037438e-14,-299.8190232572526,0.0,0.0,0.0,300.00000000000097,3.141592653589793,0.0,0.0,0.0,0.0,0.0,0.0,0.0,0.0
37,1,Target,3.7,6384310.147753616,1.3593620518790565e-13,220344.2130821846,10.417473694190493,3.6739625485930967e-14,-299.8190725117924,0.0,0.0,0.0,300.00000000000097,3.141592653589793,0.0,0.0,0.0,0.0,0.0,0.0,0.0,0.0
38,1,Target,3.8000000000000003,6384311.189426573,1.3961016804961844e-13,220314.23117234785,10.416056225087491,3.673963144985517e-14,-299.81912175963095,0.0,0.0,0.0,300.00000000000097,3.141592653589793,0.0,0.0,0.0,0.0,0.0,0.0,0.0,0.0
39,1,Target,3.9,6384312.230957783,1.4328413150763787e-13,220284.2492575865,10.414638755747001,3.673963741214698e-14,-299.81917100076816,0.0,0.0,0.0,300.00000000000097,3.141592653589793,0.0,0.0,0.0,0.0,0.0,0.0,0.0,0.0
40,1,Target,4.0,6384313.272347241,1.469580955618007e-13,220254.26733790146,10.413221286169076,3.67396433728064e-14,-299.81922023520406,0.0,0.0,0.0,300.00000000000085,3.141592653589793,0.0,0.0,0.0,0.0,0.0,0.0,0.0,0.0
41,1,Target,4.1,6384314.313594953,1.5063206021194374e-13,220224.28541329358,10.411803816353746,3.673964933183342e-14,-299.8192694629386,0.0,0.0,0.0,300.00000000000074,3.141592653589793,0.0,0.0,0.0,0.0,0.0,0.0,0.0,0.0
42,1,Target,4.2,6384315.354700918,1.543060254579039e-13,220194.3034837631,10.410386346301031,3.673965528922806e-14,-299.819318683972,0.0,0.0,0.0,300.00000000000074,3.141592653589793,0.0,0.0,0.0,0.0,0.0,0.0,0.0,0.0
43,1,Target,4.3,6384316.3956651315,1.579799912995176e-13,220164.32154931102,10.40896887601099,3.6739661244990335e-14,-299.8193678983042,0.0,0.0,0.0,300.0000000000008,3.141592653589793,0.0,0.0,0.0,0.0,0.0,0.0,0.0,0.0
44,1,Target,4.4,6384317.436487603,1.6165395773662202e-13,220134.3396099378,10.40755140548362,3.6739667199120224e-14,-299.81941710593514,0.0,0.0,0.0,300.00000000000085,3.141592653589793,0.0,0.0,0.0,0.0,0.0,0.0,0.0,0.0
45,1,Target,4.5,6384318.477168327,1.6532792476905366e-13,220104.35766564397,10.406133934718955,3.673967315161772e-14,-299.8194663068648,0.0,0.0,0.0,300.0000000000009,3.141592653589793,0.0,0.0,0.0,0.0,0.0,0.0,0.0,0.0
46,1,Target,4.6000000000000005,6384319.517707305,1.6900189239664944e-13,220074.37571643086,10.40471646371706,3.673967910248283e-14,-299.8195155010932,0.0,0.0,0.0,300.00000000000097,3.141592653589793,0.0,0.0,0.0,0.0,0.0,0.0,0.0,0.0
47,1,Target,4.7,6384320.558104535,1.7267586061924593e-13,220044.39376229828,10.403298992477927,3.673968505171554e-14,-299.8195646886201,0.0,0.0,0.0,300.0000000000009,3.141592653589793,0.0,0.0,0.0,0.0,0.0,0.0,0.0,0.0
48,1,Target,4.8,6384321.598360013,1.7634982943667985e-13,220014.4118032472,10.401881521001608,3.673969099931586e-14,-299.8196138694458,0.0,0.0,0.0,300.00000000000085,3.141592653589793,0.0,0.0,0.0,0.0,0.0,0.0,0.0,0.0
49,1,Target,4.9,6384322.638473756,1.8002379884878857e-13,219984.42983927843,10.400464049288118,3.673969694528381e-14,-299.81966304357024,0.0,0.0,0.0,300.0000000000009,3.141592653589793,0.0,0.0,0.0,0.0,0.0,0.0,0.0,0.0
50,1,Target,5.0,6384323.678445746,1.836977688554082e-13,219954.4478703928,10.399046577337527,3.673970288961937e-14,-299.8197122109935,0.0,0.0,0.0,300.00000000000097,3.141592653589793,0.0,0.0,0.0,0.0,0.0,0.0,0.0,0.0
51,1,Target,5.1000000000000005,6384324.718275988,1.8737173945637563e-13,219924.46589659082,10.39762910514985,3.673970883232254e-14,-299.81976137171534,0.0,0.0,0.0,300.00000000000097,3.141592653589793,0.0,0.0,0.0,0.0,0.0,0.0,0.0,0.0
52,1,Target,5.2,6384325.757964483,1.910457106515277e-13,219894.48391787295,10.396211632725105,3.673971477339332e-14,-299.81981052573593,0.0,0.0,0.0,300.00000000000097,3.141592653589793,0.0,0.0,0.0,0.0,0.0,0.0,0.0,0.0
53,1,Target,5.3,6384326.797511234,1.9471968244070122e-13,219864.5019342403,10.39479416006334,3.673972071283171e-14,-299.8198596730551,0.0,0.0,0.0,300.00000000000085,3.141592653589793,0.0,0.0,0.0,0.0,0.0,0.0,0.0,0.0
54,1,Target,5.4,6384327.8369162325,1.983936548237328e-13,219834.51994569303,10.393376687164583,3.6739726650637715e-14,-299.81990881367307,0.0,0.0,0.0,300.00000000000085,3.141592653589793,0.0,0.0,0.0,0.0,0.0,0.0,0.0,0.0
55,1,Target,5.5,6384328.876179486,2.020676278004593e-13,219804.5379522321,10.391959214028867,3.673973258681136e-14,-299.81995794758984,0.0,0.0,0.0,300.00000000000097,3.141592653589793,0.0,0.0,0.0,0.0,0.0,0.0,0.0,0.0
56,1,Target,5.6000000000000005,6384329.915300989,2.057416013707174e-13,219774.55595385775,10.390541740656204,3.673973852135258e-14,-299.8200070748051,0.0,0.0,0.0,300.00000000000085,3.141592653589793,0.0,0.0,0.0,0.0,0.0,0.0,0.0,0.0
57,1,Target,5.7,6384330.954280747,2.094155755343441e-13,219744.57395057147,10.389124267046665,3.6739744454261436e-14,-299.8200561953192,0.0,0.0,0.0,300.00000000000085,3.141592653589793,0.0,0.0,0.0,0.0,0.0,0.0,0.0,0.0
58,1,Target,5.8,6384331.993118754,2.1308955029117568e-13,219714.59194237326,10.387706793200252,3.673975038553789e-14,-299.8201053091319,0.0,0.0,0.0,300.00000000000074,3.141592653589793,0.0,0.0,0.0,0.0,0.0,0.0,0.0,0.0
59,1,Target,5.9,6384333.031815014,2.1676352564104932e-13,219684.6099292641,10.386289319117024,3.6739756315181994e-14,-299.8201544162436,0.0,0.0,0.0,300.00000000000097,3.141592653589793,0.0,0.0,0.0,0.0,0.0,0.0,0.0,0.0
60,1,Target,6.0,6384334.070369532,2.2043750158380173e-13,219654.62791124458,10.384871844796981,3.67397622431937e-14,-299.8202035166538,0.0,0.0,0.0,300.00000000000097,3.141592653589793,0.0,0.0,0.0,0.0,0.0,0.0,0.0,0.0
61,1,Target,6.1000000000000005,6384335.108782302,2.2411147811926965e-13,219624.64588831554,10.38345437024019,3.6739768169573036e-14,-299.8202526103629,0.0,0.0,0.0,300.00000000000114,3.141592653589793,0.0,0.0,0.0,0.0,0.0,0.0,0.0,0.0
62,1,Target,6.2,6384336.147053315,2.277854552472895e-13,219594.66386047727,10.382036895446653,3.6739774094319945e-14,-299.8203016973703,0.0,0.0,0.0,300.00000000000097,3.141592653589793,0.0,0.0,0.0,0.0,0.0,0.0,0.0,0.0
63,1,Target,6.3,6384337.185182583,2.3145943296769823e-13,219564.6818277304,10.380619420416405,3.673978001743448e-14,-299.8203507776766,0.0,0.0,0.0,300.00000000000097,3.141592653589793,0.0,0.0,0.0,0.0,0.0,0.0,0.0,0.0
64,1,Target,6.4,6384338.223170115,2.3513341128033327e-13,219534.6997900763,10.379201945149488,3.673978593891664e-14,-299.82039985128154,0.0,0.0,0.0,300.0000000000009,3.141592653589793,0.0,0.0,0.0,0.0,0.0,0.0,0.0,0.0
65,1,Target,6.5,6384339.261015893,2.388073901850304e-13,219504.71774751518,10.377784469645945,3.6739791858766417e-14,-299.8204489181852,0.0,0.0,0.0,300.0000000000009,3.141592653589793,0.0,0.0,0.0,0.0,0.0,0.0,0.0,0.0
66,1,Target,6.6000000000000005,6384340.298719932,2.4248136968162734e-13,219474.73570004775,10.376366993905787,3.67397977769838e-14,-299.82049797838755,0.0,0.0,0.0,300.00000000000085,3.141592653589793,0.0,0.0,0.0,0.0,0.0,0.0,0.0,0.0
67,1,Target,6.7,6384341.336282212,2.4615534976995985e-13,219444.75364767437,10.374949517929062,3.673980369356881e-14,-299.8205470318887,0.0,0.0,0.0,300.0000000000009,3.141592653589793,0.0,0.0,0.0,0.0,0.0,0.0,0.0,0.0
68,1,Target,6.8,6384342.3737027515,2.498293304498654e-13,219414.77159039627,10.373532041715794,3.6739809608521426e-14,-299.82059607868837,0.0,0.0,0.0,300.00000000000085,3.141592653589793,0.0,0.0,0.0,0.0,0.0,0.0,0.0,0.0
69,1,Target,6.9,6384343.410981542,2.5350331172118055e-13,219384.78952821385,10.372114565266024,3.673981552184166e-14,-299.82064511878684,0.0,0.0,0.0,300.00000000000085,3.141592653589793,0.0,0.0,0.0,0.0,0.0,0.0,0.0,0.0
70,1,Target,7.0,6384344.448118585,2.571772935837418e-13,219354.80746112773,10.370697088579774,3.6739821433529514e-14,-299.820694152184,0.0,0.0,0.0,300.0000000000009,3.141592653589793,0.0,0.0,0.0,0.0,0.0,0.0,0.0,0.0
71,1,Target,7.1000000000000005,6384345.485113876,2.60851276037386e-13,219324.82538913825,10.369279611657076,3.6739827343585e-14,-299.82074317887987,0.0,0.0,0.0,300.0000000000009,3.141592653589793,0.0,0.0,0.0,0.0,0.0,0.0,0.0,0.0
72,1,Target,7.2,6384346.521967421,2.645252590819502e-13,219294.84331224684,10.367862134497974,3.6739833252008074e-14,-299.82079219887424,0.0,0.0,0.0,300.0000000000008,3.141592653589793,0.0,0.0,0.0,0.0,0.0,0.0,0.0,0.0
73,1,Target,7.3,6384347.55867921,2.6819924271727094e-13,219264.86123045342,10.366444657102498,3.6739839158798786e-14,-299.8208412121676,0.0,0.0,0.0,300.00000000000097,3.141592653589793,0.0,0.0,0.0,0.0,0.0,0.0,0.0,0.0
74,1,Target,7.4,6384348.5952492505,2.71873226943185e-13,219234.8791437594,10.365027179470687,3.673984506395709e-14,-299.82089021875936,0.0,0.0,0.0,300.00000000000085,3.141592653589793,0.0,0.0,0.0,0.0,0.0,0.0,0.0,0.0
75,1,Target,7.5,6384349.631677541,2.755472117595291e-13,219204.8970521646,10.363609701602545,3.6739850967483026e-14,-299.82093921864987,0.0,0.0,0.0,300.00000000000085,3.141592653589793,0.0,0.0,0.0,0.0,0.0,0.0,0.0,0.0
76,1,Target,7.6000000000000005,6384350.66796409,2.7922119716614034e-13,219174.91495567042,10.362192223498125,3.673985686937658e-14,-299.8209882118391,0.0,0.0,0.0,300.00000000000085,3.141592653589793,0.0,0.0,0.0,0.0,0.0,0.0,0.0,0.0
77,1,Target,7.7,6384351.704108897,2.828951831628555e-13,219144.93285427763,10.360774745157457,3.6739862769637724e-14,-299.8210371983269,0.0,0.0,0.0,300.0000000000007,3.141592653589793,0.0,0.0,0.0,0.0,0.0,0.0,0.0,0.0
78,1,Target,7.8,6384352.7401119545,2.8656916974951093e-13,219114.95074798612,10.359357266580565,3.6739868668266535e-14,-299.82108617811366,0.0,0.0,0.0,300.00000000000085,3.141592653589793,0.0,0.0,0.0,0.0,0.0,0.0,0.0,0.0
79,1,Target,7.9,6384353.775973263,2.902431569259436e-13,219084.96863679728,10.357939787767494,3.6739874565262914e-14,-299.8211351511988,0.0,0.0,0.0,300.00000000000074,3.141592653589793,0.0,0.0,0.0,0.0,0.0,0.0,0.0,0.0
80,1,Target,8.0,6384354.811692828,2.939171446919903e-13,219054.98652071127,10.356522308718262,3.6739880460626964e-14,-299.8211841175829,0.0,0.0,0.0,300.00000000000085,3.141592653589793,0.0,0.0,0.0,0.0,0.0,0.0,0.0,0.0
81,1,Target,8.1,6384355.847270643,2.975911330474876e-13,219025.0043997293,10.355104829432925,3.6739886354358595e-14,-299.82123307726545,0.0,0.0,0.0,300.0000000000008,3.141592653589793,0.0,0.0,0.0,0.0,0.0,0.0,0.0,0.0
82,1,Target,8.2,6384356.882706715,3.0126512199227254e-13,218995.0222738516,10.353687349911487,3.673989224645785e-14,-299.8212820302468,0.0,0.0,0.0,300.00000000000085,3.141592653589793,0.0,0.0,0.0,0.0,0.0,0.0,0.0,0.0
83,1,Target,8.3,6384357.918001034,3.0493911152618153e-13,218965.04014307907,10.352269870154005,3.673989813692472e-14,-299.8213309765267,0.0,0.0,0.0,300.00000000000085,3.141592653589793,0.0,0.0,0.0,0.0,0.0,0.0,0.0,0.0
84,1,Target,8.4,6384358.953153599,3.0861310164905095e-13,218935.05800741215,10.350852390160508,3.6739904025759226e-14,-299.82137991610546,0.0,0.0,0.0,300.0000000000009,3.141592653589793,0.0,0.0,0.0,0.0,0.0,0.0,0.0,0.0
85,1,Target,8.5,6384359.988164423,3.1228709236071847e-13,218905.07586685143,10.349434909930997,3.673990991296133e-14,-299.82142884898275,0.0,0.0,0.0,300.00000000000085,3.141592653589793,0.0,0.0,0.0,0.0,0.0,0.0,0.0,0.0
86,1,Target,8.6,6384361.023033497,3.1596108366102037e-13,218875.09372139798,10.348017429465541,3.673991579853106e-14,-299.8214777751587,0.0,0.0,0.0,300.00000000000085,3.141592653589793,0.0,0.0,0.0,0.0,0.0,0.0,0.0,0.0
87,1,Target,8.700000000000001,6384362.057760824,3.1963507554979377e-13,218845.1115710523,10.346599948764153,3.67399216824684e-14,-299.82152669463335,0.0,0.0,0.0,300.00000000000085,3.141592653589793,0.0,0.0,0.0,0.0,0.0,0.0,0.0,0.0
88,1,Target,8.8,6384363.0923463935,3.2330906802687494e-13,218815.12941581476,10.34518246782688,3.673992756477336e-14,-299.82157560740666,0.0,0.0,0.0,300.00000000000085,3.141592653589793,0.0,0.0,0.0,0.0,0.0,0.0,0.0,0.0
89,1,Target,8.9,6384364.126790219,3.26983061092101e-13,218785.14725568664,10.343764986653754,3.673993344544595e-14,-299.8216245134787,0.0,0.0,0.0,300.0000000000009,3.141592653589793,0.0,0.0,0.0,0.0,0.0,0.0,0.0,0.0
90,1,Target,9.0,6384365.161092294,3.3065705474530873e-13,218755.16509066793,10.342347505244788,3.673993932448616e-14,-299.8216734128494,0.0,0.0,0.0,300.00000000000097,3.141592653589793,0.0,0.0,0.0,0.0,0.0,0.0,0.0,0.0
91,1,Target,9.1,6384366.195252625,3.343310489863348e-13,218725.18292075946,10.340930023600006,3.673994520189397e-14,-299.8217223055186,0.0,0.0,0.0,300.00000000000085,3.141592653589793,0.0,0.0,0.0,0.0,0.0,0.0,0.0,0.0
92,1,Target,9.200000000000001,6384367.229271207,3.3800504381501583e-13,218695.2007459624,10.339512541719479,3.673995107766941e-14,-299.82177119148656,0.0,0.0,0.0,300.00000000000085,3.141592653589793,0.0,0.0,0.0,0.0,0.0,0.0,0.0,0.0
93,1,Target,9.3,6384368.263148041,3.4167903923118867e-13,218665.21856627715,10.338095059603218,3.673995695181246e-14,-299.82182007075323,0.0,0.0,0.0,300.00000000000085,3.141592653589793,0.0,0.0,0.0,0.0,0.0,0.0,0.0,0.0
94,1,Target,9.4,6384369.296883136,3.4535303523469054e-13,218635.23638170437,10.336677577251251,3.6739962824323154e-14,-299.82186894331863,0.0,0.0,0.0,300.00000000000097,3.141592653589793,0.0,0.0,0.0,0.0,0.0,0.0,0.0,0.0
95,1,Target,9.5,6384370.330476483,3.490270318253578e-13,218605.25419224464,10.335260094663617,3.6739968695201466e-14,-299.82191780918276,0.0,0.0,0.0,300.00000000000114,3.141592653589793,0.0,0.0,0.0,0.0,0.0,0.0,0.0,0.0
96,1,Target,9.6,6384371.363928074,3.5270102900302666e-13,218575.2719978987,10.333842611840355,3.673997456444738e-14,-299.82196666834534,0.0,0.0,0.0,300.00000000000114,3.141592653589793,0.0,0.0,0.0,0.0,0.0,0.0,0.0,0.0
97,1,Target,9.700000000000001,6384372.397237922,3.563750267675348e-13,218545.28979866722,10.332425128781477,3.673998043206091e-14,-299.8220155208066,0.0,0.0,0.0,300.00000000000114,3.141592653589793,0.0,0.0,0.0,0.0,0.0,0.0,0.0,0.0
98,1,Target,9.8,6384373.430406017,3.600490251187185e-13,218515.30759455072,10.331007645487036,3.673998629804207e-14,-299.82206436656656,0.0,0.0,0.0,300.00000000000114,3.141592653589793,0.0,0.0,0.0,0.0,0.0,0.0,0.0,0.0
99,1,Target,9.9,6384374.46343236,3.637230240564146e-13,218485.32538555,10.32959016195706,3.673999216239084e-14,-299.8221132056251,0.0,0.0,0.0,300.00000000000114,3.141592653589793,0.0,0.0,0.0,0.0,0.0,0.0,0.0,0.0
100,1,Target,10.0,6384375.496316953,3.6739702358045975e-13,218455.34317166574,10.328172678191578,3.673999802510721e-14,-299.82216203798214,0.0,0.0,0.0,300.00000000000097,3.141592653589793,0.0,0.0,0.0,0.0,0.0,0.0,0.0,0.0
101,1,Target,10.1,6384376.529059803,3.7107102369069117e-13,218425.36095289863,10.326755194190621,3.674000388619125e-14,-299.82221086363825,0.0,0.0,0.0,300.00000000000114,3.141592653589793,0.0,0.0,0.0,0.0,0.0,0.0,0.0,0.0
102,1,Target,10.200000000000001,6384377.561660905,3.747450243869451e-13,218395.37872924926,10.32533770995422,3.6740009745642884e-14,-299.8222596825928,0.0,0.0,0.0,300.0000000000012,3.141592653589793,0.0,0.0,0.0,0.0,0.0,0.0,0.0,0.0
103,1,Target,10.3,6384378.594120256,3.7841902566905836e-13,218365.3965007182,10.323920225482404,3.674001560346213e-14,-299.8223084948459,0.0,0.0,0.0,300.00000000000114,3.141592653589793,0.0,0.0,0.0,0.0,0.0,0.0,0.0,0.0
104,1,Target,10.4,6384379.626437863,3.8209302753686794e-13,218335.41426730627,10.322502740775203,3.674002145964901e-14,-299.8223573003978,0.0,0.0,0.0,300.0000000000012,3.141592653589793,0.0,0.0,0.0,0.0,0.0,0.0,0.0,0.0
105,1,Target,10.5,6384380.658613724,3.857670299902107e-13,218305.4320290143,10.32108525583266,3.67400273142035e-14,-299.8224060992482,0.0,0.0,0.0,300.00000000000114,3.141592653589793,0.0,0.0,0.0,0.0,0.0,0.0,0.0,0.0
106,1,Target,10.6,6384381.690647832,3.894410330289232e-13,218275.44978584282,10.31966777065481,3.674003316712561e-14,-299.8224548913973,0.0,0.0,0.0,300.0000000000011,3.141592653589793,0.0,0.0,0.0,0.0,0.0,0.0,0.0,0.0
107,1,Target,10.700000000000001,6384382.722540192,3.931150366528424e-13,218245.4675377924,10.318250285241673,3.6740039018415316e-14,-299.8225036768448,0.0,0.0,0.0,300.00000000000085,3.141592653589793,0.0,0.0,0.0,0.0,0.0,0.0,0.0,0.0
108,1,Target,10.8,6384383.7542908,3.967890408618043e-13,218215.48528486383,10.316832799593305,3.674004486807267e-14,-299.8225524555912,0.0,0.0,0.0,300.00000000000085,3.141592653589793,0.0,0.0,0.0,0.0,0.0,0.0,0.0,0.0
109,1,Target,10.9,6384384.785899661,4.004630456556462e-13,218185.50302705768,10.315415313709714,3.6740050716097644e-14,-299.82260122763626,0.0,0.0,0.0,300.00000000000085,3.141592653589793,0.0,0.0,0.0,0.0,0.0,0.0,0.0,0.0
110,1,Target,11.0,6384385.817366773,4.0413705103420523e-13,218155.52076437467,10.31399782759094,3.6740056562490244e-14,-299.82264999297996,0.0,0.0,0.0,300.00000000000085,3.141592653589793,0.0,0.0,0.0,0.0,0.0,0.0,0.0,0.0
111,1,Target,11.1,6384386.848692142,4.078110569973177e-13,218125.53849681534,10.312580341237,3.674006240725047e-14,-299.82269875162234,0.0,0.0,0.0,300.0000000000009,3.141592653589793,0.0,0.0,0.0,0.0,0.0,0.0,0.0,0.0
112,1,Target,11.200000000000001,6384387.87987576,4.1148506354482037e-13,218095.55622438077,10.311162854647955,3.67400682503783e-14,-299.8227475035632,0.0,0.0,0.0,300.00000000000085,3.141592653589793,0.0,0.0,0.0,0.0,0.0,0.0,0.0,0.0
113,1,Target,11.3,6384388.910917627,4.1515907067655013e-13,218065.5739470714,10.309745367823831,3.6740074091873754e-14,-299.8227962488028,0.0,0.0,0.0,300.0000000000008,3.141592653589793,0.0,0.0,0.0,0.0,0.0,0.0,0.0,0.0
114,1,Target,11.4,6384389.941817737,4.1883307839234363e-13,218035.59166488782,10.30832788076467,3.6740079931736844e-14,-299.82284498734106,0.0,0.0,0.0,300.00000000000085,3.141592653589793,0.0,0.0,0.0,0.0,0.0,0.0,0.0,0.0
115,1,Target,11.5,6384390.972576103,4.2250708669203793e-13,218005.6093778307,10.30691039347048,3.674008576996756e-14,-299.82289371917807,0.0,0.0,0.0,300.00000000000097,3.141592653589793,0.0,0.0,0.0,0.0,0.0,0.0,0.0,0.0
116,1,Target,11.6,6384392.003192722,4.261810955754694e-13,217975.62708590034,10.305492905941273,3.6740091606565884e-14,-299.8229424443136,0.0,0.0,0.0,300.00000000000097,3.141592653589793,0.0,0.0,0.0,0.0,0.0,0.0,0.0,0.0
117,1,Target,11.700000000000001,6384393.033667593,4.298551050424752e-13,217945.6447890982,10.304075418177126,3.6740097441531833e-14,-299.8229911627477,0.0,0.0,0.0,300.00000000000097,3.141592653589793,0.0,0.0,0.0,0.0,0.0,0.0,0.0,0.0
118,1,Target,11.8,6384394.064000714,4.335291150928916e-13,217915.6624874244,10.302657930178048,3.67401032748654e-14,-299.8230398744805,0.0,0.0,0.0,300.00000000000097,3.141592653589793,0.0,0.0,0.0,0.0,0.0,0.0,0.0,0.0
119,1,Target,11.9,6384395.094192093,4.37203125726556e-13,217885.68018087992,10.301240441944072,3.674010910656659e-14,-299.8230885795118,0.0,0.0,0.0,300.0000000000009,3.141592653589793,0.0,0.0,0.0,0.0,0.0,0.0,0.0,0.0
120,1,Target,12.0,6384396.124241715,4.4087713694330507e-13,217855.6978694653,10.299822953475255,3.674011493663541e-14,-299.82313727784197,0.0,0.0,0.0,300.000000000001,3.141592653589793,0.0,0.0,0.0,0.0,0.0,0.0,0.0,0.0
121,1,Target,12.1,6384397.154149589,4.4455114874297513e-13,217825.7155531809,10.298405464771589,3.6740120765071846e-14,-299.8231859694706,0.0,0.0,0.0,300.00000000000097,3.141592653589793,0.0,0.0,0.0,0.0,0.0,0.0,0.0,0.0
122,1,Target,12.200000000000001,6384398.183915711,4.482251611254027e-13,217795.73323202762,10.296987975833133,3.6740126591875906e-14,-299.8232346543979,0.0,0.0,0.0,300.00000000000097,3.141592653589793,0.0,0.0,0.0,0.0,0.0,0.0,0.0,0.0
123,1,Target,12.3,6384399.213540087,4.518991740904252e-13,217765.75090600652,10.295570486659917,3.674013241704757e-14,-299.82328333262365,0.0,0.0,0.0,300.00000000000085,3.141592653589793,0.0,0.0,0.0,0.0,0.0,0.0,0.0,0.0
124,1,Target,12.4,6384400.2430227185,4.555731876378789e-13,217735.76857511792,10.29415299725197,3.6740138240586884e-14,-299.82333200414826,0.0,0.0,0.0,300.0000000000009,3.141592653589793,0.0,0.0,0.0,0.0,0.0,0.0,0.0,0.0
125,1,Target,12.5,6384401.272363603,4.592472017676016e-13,217705.78623936264,10.292735507609326,3.67401440624938e-14,-299.82338066897137,0.0,0.0,0.0,300.00000000000085,3.141592653589793,0.0,0.0,0.0,0.0,0.0,0.0,0.0,0.0
126,1,Target,12.6,6384402.3015627405,4.629212164794296e-13,217675.80389874137,10.291318017732017,3.6740149882768354e-14,-299.82342932709315,0.0,0.0,0.0,300.00000000000085,3.141592653589793,0.0,0.0,0.0,0.0,0.0,0.0,0.0,0.0
127,1,Target,12.700000000000001,6384403.330620123,4.665952317731988e-13,217645.82155325465,10.289900527620087,3.6740155701410525e-14,-299.82347797851355,0.0,0.0,0.0,300.00000000000085,3.141592653589793,0.0,0.0,0.0,0.0,0.0,0.0,0.0,0.0
128,1,Target,12.8,6384404.359535759,4.702692476487466e-13,217615.83920290283,10.288483037273537,3.674016151842032e-14,-299.82352662323257,0.0,0.0,0.0,300.00000000000085,3.141592653589793,0.0,0.0,0.0,0.0,0.0,0.0,0.0,0.0
129,1,Target,12.9,6384405.388309639,4.739432641059088e-13,217585.8568476867,10.287065546692421,3.6740167333797756e-14,-299.8235752612503,0.0,0.0,0.0,300.00000000000097,3.141592653589793,0.0,0.0,0.0,0.0,0.0,0.0,0.0,0.0
130,1,Target,13.0,6384406.416941776,4.776172811445236e-13,217555.8744876073,10.285648055876763,3.674017314754279e-14,-299.8236238925665,0.0,0.0,0.0,300.0000000000009,3.141592653589793,0.0,0.0,0.0,0.0,0.0,0.0,0.0,0.0
131,1,Target,13.1,6384407.445432165,4.812912987644275e-13,217525.89212266542,10.284230564826615,3.6740178959655466e-14,-299.8236725171814,0.0,0.0,0.0,300.00000000000097,3.141592653589793,0.0,0.0,0.0,0.0,0.0,0.0,0.0,0.0
132,1,Target,13.200000000000001,6384408.473780806,4.849653169654575e-13,217495.9097528613,10.28281307354199,3.6740184770135753e-14,-299.82372113509496,0.0,0.0,0.0,300.00000000000097,3.141592653589793,0.0,0.0,0.0,0.0,0.0,0.0,0.0,0.0
133,1,Target,13.3,6384409.501987692,4.886393357474493e-13,217465.9273781956,10.281395582022922,3.6740190578983667e-14,-299.82376974630705,0.0,0.0,0.0,300.00000000000097,3.141592653589793,0.0,0.0,0.0,0.0,0.0,0.0,0.0,0.0
134,1,Target,13.4,6384410.530052839,4.923133551102404e-13,217435.94499866926,10.279978090269434,3.6740196386199193e-14,-299.82381835081765,0.0,0.0,0.0,300.00000000000085,3.141592653589793,0.0,0.0,0.0,0.0,0.0,0.0,0.0,0.0
135,1,Target,13.5,6384411.55797623,4.959873750536668e-13,217405.96261428276,10.278560598281583,3.674020219178236e-14,-299.82386694862697,0.0,0.0,0.0,300.00000000000085,3.141592653589793,0.0,0.0,0.0,0.0,0.0,0.0,0.0,0.0
136,1,Target,13.6,6384412.585757868,4.996613955775658e-13,217375.9802250368,10.277143106059397,3.674020799573314e-14,-299.8239155397349,0.0,0.0,0.0,300.00000000000085,3.141592653589793,0.0,0.0,0.0,0.0,0.0,0.0,0.0,0.0
137,1,Target,13.700000000000001,6384413.6133977575,5.033354166817745e-13,217345.99783093194,10.275725613602889,3.6740213798051554e-14,-299.82396412414147,0.0,0.0,0.0,300.00000000000085,3.141592653589793,0.0,0.0,0.0,0.0,0.0,0.0,0.0,0.0
138,1,Target,13.8,6384414.640895895,5.070094383661285e-13,217316.01543196914,10.274308120912114,3.674021959873759e-14,-299.8240127018466,0.0,0.0,0.0,300.00000000000085,3.141592653589793,0.0,0.0,0.0,0.0,0.0,0.0,0.0,0.0
139,1,Target,13.9,6384415.668252288,5.106834606304658e-13,217286.03302814867,10.272890627987078,3.674022539779126e-14,-299.8240612728505,0.0,0.0,0.0,300.00000000000097,3.141592653589793,0.0,0.0,0.0,0.0,0.0,0.0,0.0,0.0
140,1,Target,14.0,6384416.695466932,5.143574834746227e-13,217256.05061947182,10.271473134827842,3.674023119521255e-14,-299.82410983715283,0.0,0.0,0.0,300.00000000000097,3.141592653589793,0.0,0.0,0.0,0.0,0.0,0.0,0.0,0.0
141,1,Target,14.1,6384417.722539827,5.180315068984363e-13,217226.06820593847,10.270055641434405,3.674023699100146e-14,-299.8241583947539,0.0,0.0,0.0,300.000000000001,3.141592653589793,0.0,0.0,0.0,0.0,0.0,0.0,0.0,0.0
142,1,Target,14.200000000000001,6384418.749470969,5.217055309017431e-13,217196.08578754982,10.268638147806827,3.674024278515799e-14,-299.8242069456534,0.0,0.0,0.0,300.00000000000097,3.141592653589793,0.0,0.0,0.0,0.0,0.0,0.0,0.0,0.0
143,1,Target,14.3,6384419.776260359,5.253795554843795e-13,217166.10336430706,10.267220653945166,3.674024857768214e-14,-299.8242554898515,0.0,0.0,0.0,300.0000000000009,3.141592653589793,0.0,0.0,0.0,0.0,0.0,0.0,0.0,0.0
144,1,Target,14.4,6384420.80290801,5.290535806461833e-13,217136.1209362097,10.265803159849378,3.674025436857391e-14,-299.8243040273481,0.0,0.0,0.0,300.00000000000074,3.141592653589793,0.0,0.0,0.0,0.0,0.0,0.0,0.0,0.0
145,1,Target,14.5,6384421.829413905,5.327276063869902e-13,217106.13850325873,10.26438566551954,3.674026015783332e-14,-299.8243525581436,0.0,0.0,0.0,300.00000000000085,3.141592653589793,0.0,0.0,0.0,0.0,0.0,0.0,0.0,0.0
146,1,Target,14.6,6384422.855778053,5.364016327066378e-13,217076.1560654552,10.262968170955695,3.674026594546038e-14,-299.8244010822377,0.0,0.0,0.0,300.00000000000097,3.141592653589793,0.0,0.0,0.0,0.0,0.0,0.0,0.0,0.0
147,1,Target,14.700000000000001,6384423.88200045,5.400756596049618e-13,217046.17362279966,10.261550676157858,3.674027173145504e-14,-299.82444959963027,0.0,0.0,0.0,300.00000000000097,3.141592653589793,0.0,0.0,0.0,0.0,0.0,0.0,0.0,0.0
148,1,Target,14.8,6384424.908081101,5.437496870817999e-13,217016.19117529303,10.260133181126083,3.674027751581734e-14,-299.8244981103216,0.0,0.0,0.0,300.00000000000114,3.141592653589793,0.0,0.0,0.0,0.0,0.0,0.0,0.0,0.0
149,1,Target,14.9,6384425.934020003,5.47423715136989e-13,216986.20872293564,10.258715685860373,3.674028329854726e-14,-299.8245466143114,0.0,0.0,0.0,300.00000000000114,3.141592653589793,0.0,0.0,0.0,0.0,0.0,0.0,0.0,0.0
150,1,Target,15.0,6384426.959817143,5.510977437703641e-13,216956.2262657278,10.257298190360775,3.674028907964479e-14,-299.8245951115997,0.0,0.0,0.0,300.00000000000114,3.141592653589793,0.0,0.0,0.0,0.0,0.0,0.0,0.0,0.0
151,1,Target,15.1,6384427.985472545,5.547717729817643e-13,216926.24380367046,10.255880694627294,3.674029485910996e-14,-299.82464360218665,0.0,0.0,0.0,300.00000000000114,3.141592653589793,0.0,0.0,0.0,0.0,0.0,0.0,0.0,0.0
152,1,Target,15.200000000000001,6384429.0109862005,5.584458027710254e-13,216896.2613367645,10.254463198659986,3.6740300636942747e-14,-299.82469208607216,0.0,0.0,0.0,300.0000000000011,3.141592653589793,0.0,0.0,0.0,0.0,0.0,0.0,0.0,0.0
153,1,Target,15.3,6384430.036358106,5.621198331379837e-13,216866.2788650109,10.253045702458902,3.6740306413143147e-14,-299.82474056325617,0.0,0.0,0.0,300.00000000000097,3.141592653589793,0.0,0.0,0.0,0.0,0.0,0.0,0.0,0.0
154,1,Target,15.4,6384431.061588257,5.657938640824765e-13,216836.29638840992,10.251628206024062,3.674031218771117e-14,-299.82478903373874,0.0,0.0,0.0,300.00000000000085,3.141592653589793,0.0,0.0,0.0,0.0,0.0,0.0,0.0,0.0
155,1,Target,15.5,6384432.086676659,5.694678956043408e-13,216806.3139069623,10.2502107093555,3.674031796064685e-14,-299.8248374975201,0.0,0.0,0.0,300.00000000000085,3.141592653589793,0.0,0.0,0.0,0.0,0.0,0.0,0.0,0.0
156,1,Target,15.6,6384433.111623314,5.731419277034128e-13,216776.33142066863,10.248793212453236,3.6740323731950146e-14,-299.8248859546,0.0,0.0,0.0,300.00000000000085,3.141592653589793,0.0,0.0,0.0,0.0,0.0,0.0,0.0,0.0
157,1,Target,15.700000000000001,6384434.136428214,5.768159603795286e-13,216746.34892952946,10.247375715317308,3.674032950162107e-14,-299.8249344049785,0.0,0.0,0.0,300.00000000000085,3.141592653589793,0.0,0.0,0.0,0.0,0.0,0.0,0.0,0.0
158,1,Target,15.8,6384435.1610913575,5.804899936325258e-13,216716.3664335454,10.24595821794775,3.674033526965963e-14,-299.82498284865557,0.0,0.0,0.0,300.00000000000085,3.141592653589793,0.0,0.0,0.0,0.0,0.0,0.0,0.0,0.0
159,1,Target,15.9,6384436.18561276,5.841640274622415e-13,216686.3839327175,10.244540720344588,3.67403410360658e-14,-299.8250312856312,0.0,0.0,0.0,300.0000000000009,3.141592653589793,0.0,0.0,0.0,0.0,0.0,0.0,0.0,0.0
160,1,Target,16.0,6384437.209992411,5.878380618685117e-13,216656.40142704622,10.24312322250786,3.6740346800839604e-14,-299.8250797159054,0.0,0.0,0.0,300.00000000000085,3.141592653589793,0.0,0.0,0.0,0.0,0.0,0.0,0.0,0.0
161,1,Target,16.1,6384438.234230316,5.915120968511745e-13,216626.4189165321,10.24170572443758,3.6740352563981037e-14,-299.82512813947824,0.0,0.0,0.0,300.00000000000085,3.141592653589793,0.0,0.0,0.0,0.0,0.0,0.0,0.0,0.0
162,1,Target,16.2,6384439.258326469,5.951861324100652e-13,216596.43640117632,10.240288226133819,3.6740358325490095e-14,-299.8251765563496,0.0,0.0,0.0,300.00000000000085,3.141592653589793,0.0,0.0,0.0,0.0,0.0,0.0,0.0,0.0
163,1,Target,16.3,6384440.28228088,5.988601685450218e-13,216566.4538809791,10.238870727596568,3.674036408536678e-14,-299.8252249665196,0.0,0.0,0.0,300.00000000000085,3.141592653589793,0.0,0.0,0.0,0.0,0.0,0.0,0.0,0.0
164,1,Target,16.4,6384441.306093533,6.025342052558794e-13,216536.47135594106,10.237453228825888,3.6740369843611096e-14,-299.8252733699881,0.0,0.0,0.0,300.00000000000085,3.141592653589793,0.0,0.0,0.0,0.0,0.0,0.0,0.0,0.0
165,1,Target,16.5,6384442.329764433,6.062082425424761e-13,216506.48882606337,10.236035729821822,3.6740375600223044e-14,-299.8253217667553,0.0,0.0,0.0,300.00000000000085,3.141592653589793,0.0,0.0,0.0,0.0,0.0,0.0,0.0,0.0
166,1,Target,16.6,6384443.3532935865,6.098822804046486e-13,216476.50629134613,10.234618230584362,3.6740381355202606e-14,-299.82537015682095,0.0,0.0,0.0,300.00000000000085,3.141592653589793,0.0,0.0,0.0,0.0,0.0,0.0,0.0,0.0
167,1,Target,16.7,6384444.376680989,6.135563188422325e-13,216446.52375179034,10.233200731113577,3.674038710854982e-14,-299.82541854018535,0.0,0.0,0.0,300.00000000000097,3.141592653589793,0.0,0.0,0.0,0.0,0.0,0.0,0.0,0.0
168,1,Target,16.8,6384445.399926643,6.172303578550658e-13,216416.5412073967,10.231783231409478,3.674039286026463e-14,-299.8254669168481,0.0,0.0,0.0,300.00000000000085,3.141592653589793,0.0,0.0,0.0,0.0,0.0,0.0,0.0,0.0
169,1,Target,16.9,6384446.423030539,6.209043974429843e-13,216386.5586581654,10.230365731472103,3.6740398610347085e-14,-299.8255152868095,0.0,0.0,0.0,300.00000000000085,3.141592653589793,0.0,0.0,0.0,0.0,0.0,0.0,0.0,0.0
170,1,Target,17.0,6384447.445992691,6.245784376058259e-13,216356.57610409753,10.228948231301482,3.674040435879718e-14,-299.8255636500696,0.0,0.0,0.0,300.00000000000097,3.141592653589793,0.0,0.0,0.0,0.0,0.0,0.0,0.0,0.0
171,1,Target,17.1,6384448.468813097,6.282524783434269e-13,216326.59354519375,10.227530730897639,3.6740410105614886e-14,-299.8256120066281,0.0,0.0,0.0,300.0000000000009,3.141592653589793,0.0,0.0,0.0,0.0,0.0,0.0,0.0,0.0
172,1,Target,17.2,6384449.491491746,6.319265196556238e-13,216296.61098145426,10.226113230260605,3.674041585080022e-14,-299.8256603564852,0.0,0.0,0.0,300.00000000000085,3.141592653589793,0.0,0.0,0.0,0.0,0.0,0.0,0.0,0.0
173,1,Target,17.3,6384450.51402865,6.356005615422541e-13,216266.62841288073,10.224695729390453,3.674042159435319e-14,-299.82570869964087,0.0,0.0,0.0,300.00000000000085,3.141592653589793,0.0,0.0,0.0,0.0,0.0,0.0,0.0,0.0
174,1,Target,17.400000000000002,6384451.536423805,6.392746040031536e-13,216236.64583947303,10.223278228287171,3.67404273362738e-14,-299.8257570360952,0.0,0.0,0.0,300.0000000000009,3.141592653589793,0.0,0.0,0.0,0.0,0.0,0.0,0.0,0.0
175,1,Target,17.5,6384452.558677207,6.429486470381595e-13,216206.66326123217,10.221860726950817,3.6740433076562025e-14,-299.825805365848,0.0,0.0,0.0,300.0000000000009,3.141592653589793,0.0,0.0,0.0,0.0,0.0,0.0,0.0,0.0
176,1,Target,17.6,6384453.580788861,6.466226906471088e-13,216176.6806781587,10.220443225381409,3.674043881521787e-14,-299.8258536888994,0.0,0.0,0.0,300.0000000000009,3.141592653589793,0.0,0.0,0.0,0.0,0.0,0.0,0.0,0.0
177,1,Target,17.7,6384454.602758764,6.502967348298378e-13,216146.69809025308,10.219025723578975,3.674044455224136e-14,-299.8259020052493,0.0,0.0,0.0,300.00000000000085,3.141592653589793,0.0,0.0,0.0,0.0,0.0,0.0,0.0,0.0
178,1,Target,17.8,6384455.624586917,6.539707795861835e-13,216116.7154975163,10.21760822154356,3.674045028763247e-14,-299.8259503148978,0.0,0.0,0.0,300.00000000000085,3.141592653589793,0.0,0.0,0.0,0.0,0.0,0.0,0.0,0.0
179,1,Target,17.900000000000002,6384456.64627332,6.576448249159828e-13,216086.73289994922,10.216190719275213,3.674045602139123e-14,-299.82599861784496,0.0,0.0,0.0,300.00000000000097,3.141592653589793,0.0,0.0,0.0,0.0,0.0,0.0,0.0,0.0
180,1,Target,18.0,6384457.667817979,6.613188708190727e-13,216056.75029755224,10.21477321677393,3.6740461753517604e-14,-299.8260469140906,0.0,0.0,0.0,300.00000000000097,3.141592653589793,0.0,0.0,0.0,0.0,0.0,0.0,0.0,0.0
181,1,Target,18.1,6384458.689220881,6.649929172952886e-13,216026.76769032536,10.213355714039741,3.67404674840116e-14,-299.82609520363474,0.0,0.0,0.0,300.0000000000009,3.141592653589793,0.0,0.0,0.0,0.0,0.0,0.0,0.0,0.0
182,1,Target,18.2,6384459.710482026,6.686669643444682e-13,215996.7850782701,10.211938211072702,3.67404732128732e-14,-299.8261434864772,0.0,0.0,0.0,300.0000000000006,3.141592653589793,0.0,0.0,0.0,0.0,0.0,0.0,0.0,0.0
183,1,Target,18.3,6384460.731601429,6.723410119664483e-13,215966.80246138675,10.210520707872844,3.674047894010249e-14,-299.82619176261875,0.0,0.0,0.0,300.00000000000085,3.141592653589793,0.0,0.0,0.0,0.0,0.0,0.0,0.0,0.0
184,1,Target,18.400000000000002,6384461.752579084,6.760150601610662e-13,215936.8198396766,10.2091032044402,3.674048466569939e-14,-299.8262400320586,0.0,0.0,0.0,300.00000000000085,3.141592653589793,0.0,0.0,0.0,0.0,0.0,0.0,0.0,0.0
185,1,Target,18.5,6384462.77341498,6.796891089281574e-13,215906.83721313937,10.207685700774794,3.6740490389663925e-14,-299.8262882947971,0.0,0.0,0.0,300.00000000000097,3.141592653589793,0.0,0.0,0.0,0.0,0.0,0.0,0.0,0.0
186,1,Target,18.6,6384463.794109134,6.833631582675601e-13,215876.85458177645,10.206268196876653,3.674049611199608e-14,-299.82633655083407,0.0,0.0,0.0,300.00000000000097,3.141592653589793,0.0,0.0,0.0,0.0,0.0,0.0,0.0,0.0
187,1,Target,18.7,6384464.814661538,6.870372081791099e-13,215846.87194558824,10.204850692745815,3.674050183269586e-14,-299.82638480016954,0.0,0.0,0.0,300.00000000000097,3.141592653589793,0.0,0.0,0.0,0.0,0.0,0.0,0.0,0.0
188,1,Target,18.8,6384465.835072183,6.907112586626438e-13,215816.8893045754,10.203433188382322,3.6740507551763276e-14,-299.8264330428036,0.0,0.0,0.0,300.00000000000097,3.141592653589793,0.0,0.0,0.0,0.0,0.0,0.0,0.0,0.0
189,1,Target,18.900000000000002,6384466.8553410815,6.943853097179985e-13,215786.90665873888,10.202015683786211,3.674051326919832e-14,-299.8264812787362,0.0,0.0,0.0,300.0000000000009,3.141592653589793,0.0,0.0,0.0,0.0,0.0,0.0,0.0,0.0
190,1,Target,19.0,6384467.875468232,6.980593613450114e-13,215756.9240080788,10.200598178957474,3.6740518985001e-14,-299.8265295079674,0.0,0.0,0.0,300.00000000000097,3.141592653589793,0.0,0.0,0.0,0.0,0.0,0.0,0.0,0.0
191,1,Target,19.1,6384468.895453634,7.017334135435197e-13,215726.94135259645,10.199180673896185,3.67405246991713e-14,-299.826577730497,0.0,0.0,0.0,300.00000000000085,3.141592653589793,0.0,0.0,0.0,0.0,0.0,0.0,0.0,0.0
192,1,Target,19.2,6384469.915297282,7.054074663133582e-13,215696.9586922922,10.197763168602373,3.674053041170924e-14,-299.8266259463253,0.0,0.0,0.0,300.00000000000097,3.141592653589793,0.0,0.0,0.0,0.0,0.0,0.0,0.0,0.0
193,1,Target,19.3,6384470.93499918,7.090815196543652e-13,215666.97602716653,10.196345663076048,3.674053612261482e-14,-299.8266741554521,0.0,0.0,0.0,300.00000000000097,3.141592653589793,0.0,0.0,0.0,0.0,0.0,0.0,0.0,0.0
194,1,Target,19.400000000000002,6384471.954559326,7.127555735663775e-13,215636.99335722026,10.194928157317255,3.674054183188802e-14,-299.8267223578774,0.0,0.0,0.0,300.0000000000009,3.141592653589793,0.0,0.0,0.0,0.0,0.0,0.0,0.0,0.0
195,1,Target,19.5,6384472.973977718,7.164296280492297e-13,215607.0106824539,10.193510651326024,3.6740547539528857e-14,-299.8267705536013,0.0,0.0,0.0,300.00000000000097,3.141592653589793,0.0,0.0,0.0,0.0,0.0,0.0,0.0,0.0
196,1,Target,19.6,6384473.993254366,7.201036831027616e-13,215577.0280028686,10.192093145102387,3.674055324553732e-14,-299.82681874262374,0.0,0.0,0.0,300.00000000000097,3.141592653589793,0.0,0.0,0.0,0.0,0.0,0.0,0.0,0.0
197,1,Target,19.7,6384475.012389258,7.237777387268083e-13,215547.04531846478,10.19067563864639,3.674055894991342e-14,-299.8268669249447,0.0,0.0,0.0,300.00000000000097,3.141592653589793,0.0,0.0,0.0,0.0,0.0,0.0,0.0,0.0
198,1,Target,19.8,6384476.031382406,7.274517949212079e-13,215517.06262924298,10.189258131958036,3.674056465265714e-14,-299.8269151005641,0.0,0.0,0.0,300.0000000000009,3.141592653589793,0.0,0.0,0.0,0.0,0.0,0.0,0.0,0.0
199,1,Target,19.900000000000002,6384477.050233799,7.31125851685796e-13,215487.07993520415,10.187840625037396,3.674057035376851e-14,-299.8269632694822,0.0,0.0,0.0,300.00000000000097,3.141592653589793,0.0,0.0,0.0,0.0,0.0,0.0,0.0,0.0
200,1,Target,20.0,6384478.068943442,7.347999090204086e-13,215457.0972363485,10.186423117884466,3.6740576053247506e-14,-299.8270114316988,0.0,0.0,0.0,300.000000000001,3.141592653589793,0.0,0.0,0.0,0.0,0.0,0.0,0.0,0.0
201,1,Target,20.1,6384479.087511344,7.384739669248852e-13,215427.11453267737,10.18500561049929,3.6740581751094126e-14,-299.82705958721385,0.0,0.0,0.0,300.00000000000097,3.141592653589793,0.0,0.0,0.0,0.0,0.0,0.0,0.0,0.0
202,1,Target,20.2,6384480.105937482,7.421480253990593e-13,215397.1318241908,10.183588102881917,3.6740587447308384e-14,-299.8271077360275,0.0,0.0,0.0,300.00000000000097,3.141592653589793,0.0,0.0,0.0,0.0,0.0,0.0,0.0,0.0
203,1,Target,20.3,6384481.124221873,7.458220844427695e-13,215367.14911088953,10.182170595032353,3.6740593141890275e-14,-299.82715587813965,0.0,0.0,0.0,300.00000000000097,3.141592653589793,0.0,0.0,0.0,0.0,0.0,0.0,0.0,0.0
204,1,Target,20.400000000000002,6384482.142364514,7.494961440558524e-13,215337.1663927745,10.180753086950647,3.674059883483979e-14,-299.8272040135503,0.0,0.0,0.0,300.0000000000009,3.141592653589793,0.0,0.0,0.0,0.0,0.0,0.0,0.0,0.0
205,1,Target,20.5,6384483.160365401,7.53170204238144e-13,215307.18366984624,10.17933557863683,3.674060452615694e-14,-299.8272521422594,0.0,0.0,0.0,300.0000000000008,3.141592653589793,0.0,0.0,0.0,0.0,0.0,0.0,0.0,0.0
206,1,Target,20.6,6384484.178224542,7.56844264989482e-13,215277.20094210558,10.177918070090929,3.674061021584173e-14,-299.8273002642672,0.0,0.0,0.0,300.00000000000085,3.141592653589793,0.0,0.0,0.0,0.0,0.0,0.0,0.0,0.0
207,1,Target,20.7,6384485.195941925,7.60518326309702e-13,215247.2182095529,10.176500561312986,3.674061590389416e-14,-299.82734837957355,0.0,0.0,0.0,300.00000000000097,3.141592653589793,0.0,0.0,0.0,0.0,0.0,0.0,0.0,0.0
208,1,Target,20.8,6384486.213517561,7.641923881986417e-13,215217.2354721892,10.175083052303025,3.674062159031422e-14,-299.82739648817835,0.0,0.0,0.0,300.00000000000097,3.141592653589793,0.0,0.0,0.0,0.0,0.0,0.0,0.0,0.0
209,1,Target,20.900000000000002,6384487.230951443,7.678664506561372e-13,215187.25273001473,10.173665543061075,3.67406272751019e-14,-299.82744459008165,0.0,0.0,0.0,300.0000000000009,3.141592653589793,0.0,0.0,0.0,0.0,0.0,0.0,0.0,0.0
210,1,Target,21.0,6384488.248243574,7.715405136820261e-13,215157.2699830306,10.17224803358718,3.6740632958257226e-14,-299.8274926852835,0.0,0.0,0.0,300.00000000000097,3.141592653589793,0.0,0.0,0.0,0.0,0.0,0.0,0.0,0.0
211,1,Target,21.1,6384489.265393961,7.752145772761457e-13,215127.28723123742,10.170830523881364,3.674063863978018e-14,-299.82754077378394,0.0,0.0,0.0,300.00000000000097,3.141592653589793,0.0,0.0,0.0,0.0,0.0,0.0,0.0,0.0
212,1,Target,21.2,6384490.282402598,7.78888641438332e-13,215097.30447463557,10.169413013943643,3.6740644319670755e-14,-299.8275888555827,0.0,0.0,0.0,300.00000000000085,3.141592653589793,0.0,0.0,0.0,0.0,0.0,0.0,0.0,0.0
213,1,Target,21.3,6384491.299269476,7.825627061684209e-13,215067.32171322586,10.167995503774087,3.674064999792899e-14,-299.8276369306802,0.0,0.0,0.0,300.00000000000097,3.141592653589793,0.0,0.0,0.0,0.0,0.0,0.0,0.0,0.0
214,1,Target,21.400000000000002,6384492.315994611,7.862367714662506e-13,215037.33894700938,10.166577993372712,3.6740655674554845e-14,-299.82768499907615,0.0,0.0,0.0,300.00000000000097,3.141592653589793,0.0,0.0,0.0,0.0,0.0,0.0,0.0,0.0
215,1,Target,21.5,6384493.332577992,7.899108373316576e-13,215007.35617598635,10.165160482739545,3.674066134954833e-14,-299.8277330607706,0.0,0.0,0.0,300.0000000000009,3.141592653589793,0.0,0.0,0.0,0.0,0.0,0.0,0.0,0.0
216,1,Target,21.6,6384494.349019621,7.935849037644772e-13,214977.37340015688,10.163742971874598,3.6740667022909445e-14,-299.8277811157635,0.0,0.0,0.0,300.0000000000009,3.141592653589793,0.0,0.0,0.0,0.0,0.0,0.0,0.0,0.0
217,1,Target,21.7,6384495.365319496,7.972589707645477e-13,214947.39061952275,10.162325460777948,3.674067269463821e-14,-299.827829164055,0.0,0.0,0.0,300.0000000000009,3.141592653589793,0.0,0.0,0.0,0.0,0.0,0.0,0.0,0.0
218,1,Target,21.8,6384496.381477618,8.009330383317042e-13,214917.40783408395,10.1609079494496,3.67406783647346e-14,-299.827877205645,0.0,0.0,0.0,300.00000000000085,3.141592653589793,0.0,0.0,0.0,0.0,0.0,0.0,0.0,0.0
219,1,Target,21.900000000000002,6384497.397493991,8.046071064657852e-13,214887.42504384142,10.159490437889596,3.6740684033198637e-14,-299.8279252405336,0.0,0.0,0.0,300.00000000000097,3.141592653589793,0.0,0.0,0.0,0.0,0.0,0.0,0.0,0.0
220,1,Target,22.0,6384498.413368611,8.082811751666267e-13,214857.44224879565,10.158072926097962,3.67406897000303e-14,-299.82797326872065,0.0,0.0,0.0,300.00000000000097,3.141592653589793,0.0,0.0,0.0,0.0,0.0,0.0,0.0,0.0
221,1,Target,22.1,6384499.429101486,8.11955244434066e-13,214827.45944894743,10.156655414074718,3.6740695365229596e-14,-299.82802129020615,0.0,0.0,0.0,300.00000000000097,3.141592653589793,0.0,0.0,0.0,0.0,0.0,0.0,0.0,0.0
222,1,Target,22.2,6384500.44469261,8.156293142679402e-13,214797.47664429783,10.155237901819929,3.6740701028796525e-14,-299.8280693049902,0.0,0.0,0.0,300.00000000000097,3.141592653589793,0.0,0.0,0.0,0.0,0.0,0.0,0.0,0.0
223,1,Target,22.3,6384501.460141984,8.193033846680855e-13,214767.49383484665,10.153820389333585,3.674070669073109e-14,-299.82811731307277,0.0,0.0,0.0,300.00000000000097,3.141592653589793,0.0,0.0,0.0,0.0,0.0,0.0,0.0,0.0
224,1,Target,22.400000000000002,6384502.4754496105,8.229774556343389e-13,214737.51102059515,10.152402876615742,3.674071235103328e-14,-299.8281653144537,0.0,0.0,0.0,300.00000000000085,3.141592653589793,0.0,0.0,0.0,0.0,0.0,0.0,0.0,0.0
225,1,Target,22.5,6384503.490615481,8.266515271665363e-13,214707.52820154408,10.150985363666457,3.674071800970313e-14,-299.82821330913345,0.0,0.0,0.0,300.00000000000097,3.141592653589793,0.0,0.0,0.0,0.0,0.0,0.0,0.0,0.0
226,1,Target,22.6,6384504.505639599,8.303255992645141e-13,214677.5453776937,10.149567850485719,3.6740723666740585e-14,-299.8282612971114,0.0,0.0,0.0,300.00000000000085,3.141592653589793,0.0,0.0,0.0,0.0,0.0,0.0,0.0,0.0
227,1,Target,22.7,6384505.520521954,8.339996719281094e-13,214647.562549045,10.148150337073602,3.674072932214567e-14,-299.8283092783878,0.0,0.0,0.0,300.0000000000007,3.141592653589793,0.0,0.0,0.0,0.0,0.0,0.0,0.0,0.0
228,1,Target,22.8,6384506.535262574,8.376737451571612e-13,214617.57971559843,10.146732823430094,3.674073497591841e-14,-299.82835725296286,0.0,0.0,0.0,300.0000000000007,3.141592653589793,0.0,0.0,0.0,0.0,0.0,0.0,0.0,0.0
229,1,Target,22.900000000000002,6384507.549861427,8.413478189515032e-13,214587.59687735458,10.14531530955526,3.674074062805879e-14,-299.8284052208365,0.0,0.0,0.0,300.0000000000007,3.141592653589793,0.0,0.0,0.0,0.0,0.0,0.0,0.0,0.0
230,1,Target,23.0,6384508.564318543,8.450218933109744e-13,214557.61403431496,10.143897795449131,3.6740746278566805e-14,-299.82845318200856,0.0,0.0,0.0,300.0000000000007,3.141592653589793,0.0,0.0,0.0,0.0,0.0,0.0,0.0,0.0
231,1,Target,23.1,6384509.578633901,8.486959682354109e-13,214527.6311864789,10.142480281111716,3.674075192744248e-14,-299.8285011364793,0.0,0.0,0.0,300.00000000000085,3.141592653589793,0.0,0.0,0.0,0.0,0.0,0.0,0.0,0.0
232,1,Target,23.2,6384510.59280751,8.523700437246497e-13,214497.64833384793,10.141062766543058,3.674075757468577e-14,-299.8285490842484,0.0,0.0,0.0,300.00000000000085,3.141592653589793,0.0,0.0,0.0,0.0,0.0,0.0,0.0,0.0
233,1,Target,23.3,6384511.606839367,8.560441197785262e-13,214467.66547642258,10.139645251743193,3.674076322029669e-14,-299.82859702531596,0.0,0.0,0.0,300.00000000000085,3.141592653589793,0.0,0.0,0.0,0.0,0.0,0.0,0.0,0.0
234,1,Target,23.400000000000002,6384512.620729466,8.597181963968777e-13,214437.68261420322,10.138227736712153,3.674076886427525e-14,-299.82864495968204,0.0,0.0,0.0,300.00000000000085,3.141592653589793,0.0,0.0,0.0,0.0,0.0,0.0,0.0,0.0
235,1,Target,23.5,6384513.634477822,8.633922735795421e-13,214407.69974719093,10.136810221449963,3.6740774506621445e-14,-299.8286928873467,0.0,0.0,0.0,300.0000000000009,3.141592653589793,0.0,0.0,0.0,0.0,0.0,0.0,0.0,0.0
236,1,Target,23.6,6384514.648084421,8.670663513263549e-13,214377.7168753864,10.135392705956674,3.6740780147335275e-14,-299.8287408083097,0.0,0.0,0.0,300.00000000000085,3.141592653589793,0.0,0.0,0.0,0.0,0.0,0.0,0.0,0.0
237,1,Target,23.7,6384515.661549276,8.707404296371544e-13,214347.73399878992,10.133975190232292,3.6740785786416756e-14,-299.82878872257135,0.0,0.0,0.0,300.00000000000097,3.141592653589793,0.0,0.0,0.0,0.0,0.0,0.0,0.0,0.0
238,1,Target,23.8,6384516.674872373,8.744145085117756e-13,214317.75111740237,10.13255767427687,3.674079142386586e-14,-299.82883663013143,0.0,0.0,0.0,300.00000000000097,3.141592653589793,0.0,0.0,0.0,0.0,0.0,0.0,0.0,0.0
239,1,Target,23.900000000000002,6384517.688053726,8.780885879500573e-13,214287.7682312246,10.131140158090423,3.674079705968259e-14,-299.82888453098985,0.0,0.0,0.0,300.00000000000085,3.141592653589793,0.0,0.0,0.0,0.0,0.0,0.0,0.0,0.0
240,1,Target,24.0,6384518.701093322,8.817626679518338e-13,214257.785340257,10.129722641673006,3.6740802693866967e-14,-299.8289324251469,0.0,0.0,0.0,300.00000000000085,3.141592653589793,0.0,0.0,0.0,0.0,0.0,0.0,0.0,0.0
241,1,Target,24.1,6384519.713991168,8.854367485169432e-13,214227.80244450012,10.128305125024623,3.674080832641898e-14,-299.82898031260237,0.0,0.0,0.0,300.00000000000085,3.141592653589793,0.0,0.0,0.0,0.0,0.0,0.0,0.0,0.0
242,1,Target,24.2,6384520.7267472595,8.891108296452214e-13,214197.81954395506,10.126887608145339,3.674081395733864e-14,-299.8290281933564,0.0,0.0,0.0,300.00000000000085,3.141592653589793,0.0,0.0,0.0,0.0,0.0,0.0,0.0,0.0
243,1,Target,24.3,6384521.739361606,8.927849113365073e-13,214167.83663862254,10.12547009103517,3.674081958662593e-14,-299.8290760674089,0.0,0.0,0.0,300.00000000000085,3.141592653589793,0.0,0.0,0.0,0.0,0.0,0.0,0.0,0.0
244,1,Target,24.400000000000002,6384522.751834197,8.964589935906352e-13,214137.85372850293,10.124052573694156,3.6740825214280875e-14,-299.82912393476,0.0,0.0,0.0,300.00000000000097,3.141592653589793,0.0,0.0,0.0,0.0,0.0,0.0,0.0,0.0
245,1,Target,24.5,6384523.764165042,9.001330764074444e-13,214107.87081359685,10.122635056122308,3.674083084030344e-14,-299.8291717954094,0.0,0.0,0.0,300.00000000000097,3.141592653589793,0.0,0.0,0.0,0.0,0.0,0.0,0.0,0.0
246,1,Target,24.6,6384524.776354127,9.038071597867684e-13,214077.8878939049,10.121217538319673,3.674083646469364e-14,-299.82921964935736,0.0,0.0,0.0,300.00000000000097,3.141592653589793,0.0,0.0,0.0,0.0,0.0,0.0,0.0,0.0
247,1,Target,24.7,6384525.788401461,9.074812437284458e-13,214047.90496942814,10.119800020286291,3.6740842087451476e-14,-299.82926749660373,0.0,0.0,0.0,300.0000000000009,3.141592653589793,0.0,0.0,0.0,0.0,0.0,0.0,0.0,0.0
248,1,Target,24.8,6384526.8003070485,9.111553282323141e-13,214017.9220401669,10.118382502022175,3.674084770857697e-14,-299.8293153371487,0.0,0.0,0.0,300.00000000000097,3.141592653589793,0.0,0.0,0.0,0.0,0.0,0.0,0.0,0.0
249,1,Target,24.900000000000002,6384527.812070876,9.148294132982074e-13,213987.93910612186,10.116964983527376,3.6740853328070086e-14,-299.8293631709921,0.0,0.0,0.0,300.000000000001,3.141592653589793,0.0,0.0,0.0,0.0,0.0,0.0,0.0,0.0
250,1,Target,25.0,6384528.823692962,9.185034989259663e-13,213957.95616729392,10.115547464801908,3.674085894593084e-14,-299.82941099813394,0.0,0.0,0.0,300.00000000000097,3.141592653589793,0.0,0.0,0.0,0.0,0.0,0.0,0.0,0.0
251,1,Target,25.1,6384529.910184148,9.22177581648641e-13,213927.9758708492,11.4674080378397,3.674068571043729e-14,-299.78075080447405,12.441957252115419,-4.8696256101068614e-18,0.47464499054175185,300.0000000000008,3.141592653589793,0.004513851724812494,0.0,0.0,0.04155063552947914,0.0,0.0,0.0,0.0
252,1,Target,25.2,6384531.120668969,9.258516137146481e-13,213898.0003220002,12.668840213799566,3.673990525674678e-14,-299.73238144657915,11.635947245403516,-1.027743376447094e-17,0.49068727768096665,300.0000000000007,3.141592653589793,0.008526600226795305,0.0,0.0,0.03886823852316551,0.0,0.0,0.0,0.0
253,1,Target,25.3,6384532.447167436,9.295255414743238e-13,213868.02968046663,13.792438203086233,3.673864139774616e-14,-299.6827800331786,10.882090809831112,-1.4619310605105876e-17,0.49984150121168247,300.00000000000074,3.141592653589793,0.012280304210022418,0.0,0.0,0.03635915490796413,0.0,0.0,0.0,0.0
254,1,Target,25.400000000000002,6384533.882163384,9.331993218677482e-13,213838.064035641,14.843239649858887,3.673699221773318e-14,-299.63257205567186,10.177036794473267,-1.8053698492435474e-17,0.5032851789001516,300.0000000000009,3.141592653589793,0.015791700786660767,0.0,0.0,0.03401218404551184,0.0,0.0,0.0,0.0
255,1,Target,25.5,6384535.418627232,9.368729208542056e-13,213808.10342021473,15.825958105996762,3.673504110603935e-14,-299.5822742587215,9.51764221255263,-2.071761840307952e-17,0.5020280770361885,300.00000000000097,3.141592653589793,0.019076445268199602,0.0,0.0,0.03181684667451715,0.0,0.0,0.0,0.0
256,1,Target,25.6,6384537.049984635,9.405463120496377e-13,213778.14782021666,16.74500325551571,3.6732858750379325e-14,-299.5323102204054,8.900960994575025,-2.272944481888674e-17,0.4969344896383882,300.0000000000007,3.141592653589793,0.022149180884218654,0.0,0.0,0.029763339270677786,0.0,0.0,0.0,0.0
257,1,Target,25.7,6384538.770087109,9.442194755495576e-13,213748.1971836042,17.604500025904258,3.673050487149285e-14,-299.4830238575108,8.324232978315123,-2.419133013909303e-17,0.4887426622226668,300.0000000000007,3.141592653589793,0.025023604079360995,0.0,0.0,0.02784249109760497,0.0,0.0,0.0,0.0
258,1,Target,25.8,6384540.573184519,9.478923969133118e-13,213718.25142760173,18.408306614772464,3.672802973181255e-14,-299.43469112241644,7.784873220831797,-2.5191321865296492e-17,0.47808171670691924,300.0000000000007,3.141592653589793,0.02771252565159567,0.0,0.0,0.026045723833104543,0.0,0.0,0.0,0.0
259,1,Target,25.900000000000002,6384542.453899295,9.515650662886267e-13,213688.31044495315,19.16003146734338,3.67254754468439e-14,-299.38753012470414,7.280461692410935,-2.580521057084467e-17,0.4654863900477285,300.00000000000034,3.141592653589793,0.030227927982986878,0.0,0.0,0.02436501365012436,0.0,0.0,0.0,0.0
260,1,Target,26.0,6384544.407202314,9.552374776580597e-13,213658.37410923635,19.86304924523408,3.6722877124379055e-14,-299.3417098813356,6.808733392554132,-2.6098142251044083e-17,0.4514098625668733,300.00000000000045,3.141592653589793,0.032581018602032996,0.0,0.0,0.022792855630136395,0.0,0.0,0.0,0.0
261,1,Target,26.1,6384546.42839031,9.58909628191318e-13,213628.44227936649,20.520515830142187,3.672026385353116e-14,-299.29735787351206,6.367568912786421,-2.6126024452646127e-17,0.43623491705738904,300.00000000000045,3.141592653589793,0.034782280304401864,0.0,0.0,0.02132223038699377,0.0,0.0,0.0,0.0
262,1,Target,26.2,6384548.513064748,9.625815176894533e-13,213598.51480339913,21.135382407865798,3.671765956282351e-14,-299.25456656578115,5.954985458820377,-2.5936752098603395e-17,0.42028364052657485,300.00000000000045,3.141592653589793,0.03684151804675957,0.0,0.0,0.019946572780683278,0.0,0.0,0.0,0.0
263,1,Target,26.3,6384550.657112052,9.662531481087475e-13,213568.59152173018,21.710408678848673,3.67150837641493e-14,-299.21339902316805,5.569128335666998,-2.5571275658353708e-17,0.4038258543406893,300.00000000000034,3.141592653589793,0.038767902816502574,0.0,0.0,0.01865974260370425,0.0,0.0,0.0,0.0
264,1,Target,26.400000000000002,6384552.856685108,9.699245231536565e-13,213538.67226977597,22.24817524140375,3.671255219729975e-14,-299.1738937448053,5.2082628920705885,-2.5064531594531615e-17,0.3870864348543409,300.00000000000045,3.141592653589793,0.04057001266863398,0.0,0.0,0.017455997126118995,0.0,0.0,0.0,0.0
265,1,Target,26.5,6384555.108185982,9.735956479295636e-13,213508.7568802065,22.751095193129665,3.671007738790024e-14,-299.13606881737525,4.8707669155820525,-2.4446252465174517e-17,0.37025166691430755,300.0000000000005,3.141592653589793,0.04225587110986949,0.0,0.0,0.01632996538973491,0.0,0.0,0.0,0.0
